[{"osm_id":7722312789,"name":"Unknown","amenity_type":"laundry","lat":40.771873,"lng":-73.9049239,"h3_res7":"872a100f0ffffff","h3_res8":"882a100f39fffff","h3_res9":"892a100f067ffff"},{"osm_id":419368026,"name":"Bubbly Laundromat","amenity_type":"laundry","lat":40.690273,"lng":-73.9951007,"h3_res7":"872a10729ffffff","h3_res8":"882a107299fffff","h3_res9":"892a107298bffff"},{"osm_id":937351560,"name":"Country Club Laundromat & Dry Cleaners","amenity_type":"laundry","lat":40.8462899,"lng":-73.8195074,"h3_res7":"872a1001cffffff","h3_res8":"882a1001c9fffff","h3_res9":"892a1001c9bffff"},{"osm_id":1177271154,"name":"N & K Express Laundromat","amenity_type":"laundry","lat":40.6737014,"lng":-73.9530752,"h3_res7":"872a100dbffffff","h3_res8":"882a100dbdfffff","h3_res9":"892a100dbc7ffff"},{"osm_id":1581645056,"name":"Clean Laundry","amenity_type":"laundry","lat":40.7464476,"lng":-73.9736914,"h3_res7":"872a100d2ffffff","h3_res8":"882a100d05fffff","h3_res9":"892a100d297ffff"},{"osm_id":1708719691,"name":"Laudromat","amenity_type":"laundry","lat":40.7699993,"lng":-73.912397,"h3_res7":"872a100f3ffffff","h3_res8":"882a100f3dfffff","h3_res9":"892a100f3d7ffff"},{"osm_id":1907729896,"name":"P&P Laundromat","amenity_type":"laundry","lat":40.7124801,"lng":-73.9648323,"h3_res7":"872a100deffffff","h3_res8":"882a100dedfffff","h3_res9":"892a100de53ffff"},{"osm_id":1930035857,"name":"Rockaway Laundromat","amenity_type":"laundry","lat":40.5979397,"lng":-73.7483285,"h3_res7":"872a10385ffffff","h3_res8":"882a103857fffff","h3_res9":"892a1038573ffff"},{"osm_id":2017709327,"name":"Unknown","amenity_type":"laundry","lat":40.7423064,"lng":-73.8717055,"h3_res7":"872a100c4ffffff","h3_res8":"882a100c41fffff","h3_res9":"892a100c40fffff"},{"osm_id":2017709328,"name":"New Sam's Laundromat","amenity_type":"laundry","lat":40.7358885,"lng":-73.8753802,"h3_res7":"872a100c4ffffff","h3_res8":"882a100c47fffff","h3_res9":"892a100c467ffff"},{"osm_id":2039276427,"name":"Unknown","amenity_type":"laundry","lat":40.906643,"lng":-73.9043857,"h3_res7":"872a100a4ffffff","h3_res8":"882a100a4bfffff","h3_res9":"892a100a4a7ffff"},{"osm_id":2105118499,"name":"The Stuy Wash-n-Dry","amenity_type":"laundry","lat":40.6802178,"lng":-73.9405386,"h3_res7":"872a100d8ffffff","h3_res8":"882a100d83fffff","h3_res9":"892a100d82bffff"},{"osm_id":2113159209,"name":"P & K Laundromat","amenity_type":"laundry","lat":40.7843827,"lng":-73.9776554,"h3_res7":"872a1008bffffff","h3_res8":"882a1008b9fffff","h3_res9":"892a1008b97ffff"},{"osm_id":2273001280,"name":"Five Star Laundromat","amenity_type":"laundry","lat":40.6470502,"lng":-73.9694655,"h3_res7":"872a10775ffffff","h3_res8":"882a107751fffff","h3_res9":"892a107750fffff"},{"osm_id":2274507413,"name":"Joy S Cleaners","amenity_type":"laundry","lat":40.7087289,"lng":-73.8310035,"h3_res7":"872a100eaffffff","h3_res8":"882a100ea1fffff","h3_res9":"892a100ea17ffff"},{"osm_id":2275578132,"name":"House of Sudz III","amenity_type":"laundry","lat":40.735781,"lng":-73.9550132,"h3_res7":"872a100d0ffffff","h3_res8":"882a100d03fffff","h3_res9":"892a100d023ffff"},{"osm_id":2276412684,"name":"The Laundry on Graham Ave","amenity_type":"laundry","lat":40.7176322,"lng":-73.9450526,"h3_res7":"872a100d1ffffff","h3_res8":"882a100d13fffff","h3_res9":"892a100d12bffff"},{"osm_id":2328279299,"name":"New York Laundromat","amenity_type":"laundry","lat":40.7389004,"lng":-73.9961279,"h3_res7":"872a100d2ffffff","h3_res8":"882a100d27fffff","h3_res9":"892a100d27bffff"},{"osm_id":2377128147,"name":"Earth Cleaner","amenity_type":"laundry","lat":40.7449755,"lng":-73.9984441,"h3_res7":"872a100d2ffffff","h3_res8":"882a100d25fffff","h3_res9":"892a100d243ffff"},{"osm_id":2443892136,"name":"Neet Cleaners","amenity_type":"laundry","lat":40.7892428,"lng":-73.976363,"h3_res7":"872a10088ffffff","h3_res8":"882a100883fffff","h3_res9":"892a100882bffff"},{"osm_id":2494055565,"name":"Laundromat","amenity_type":"laundry","lat":40.6828716,"lng":-73.9998701,"h3_res7":"872a10729ffffff","h3_res8":"882a107291fffff","h3_res9":"892a1072907ffff"},{"osm_id":2494064572,"name":"Three Stars Laundromat","amenity_type":"laundry","lat":40.6933303,"lng":-73.9680882,"h3_res7":"872a100daffffff","h3_res8":"882a100dadfffff","h3_res9":"892a100dad7ffff"},{"osm_id":2494076884,"name":"Laundromat","amenity_type":"laundry","lat":40.6920767,"lng":-73.9688818,"h3_res7":"872a100daffffff","h3_res8":"882a100dadfffff","h3_res9":"892a100dac7ffff"},{"osm_id":2494104062,"name":"Mister Suds Laundromat","amenity_type":"laundry","lat":40.6474907,"lng":-73.9736281,"h3_res7":"872a10775ffffff","h3_res8":"882a107757fffff","h3_res9":"892a1077573ffff"},{"osm_id":2494176660,"name":"Unknown","amenity_type":"laundry","lat":40.7682011,"lng":-73.9293898,"h3_res7":"872a100d4ffffff","h3_res8":"882a100d49fffff","h3_res9":"892a100d497ffff"},{"osm_id":2494197765,"name":"Yes Cleaners","amenity_type":"laundry","lat":40.6777169,"lng":-73.9983028,"h3_res7":"872a10729ffffff","h3_res8":"882a107293fffff","h3_res9":"892a1072923ffff"},{"osm_id":2494236815,"name":"The Washing King Laundromat","amenity_type":"laundry","lat":40.5517083,"lng":-74.2121993,"h3_res7":"872a1061dffffff","h3_res8":"882a1061d9fffff","h3_res9":"892a1061dbbffff"},{"osm_id":2494252059,"name":"Carroll Gardens Laundromat Dry Cleaners","amenity_type":"laundry","lat":40.678817,"lng":-73.9974471,"h3_res7":"872a10729ffffff","h3_res8":"882a107293fffff","h3_res9":"892a1072923ffff"},{"osm_id":2494292463,"name":"True Clean","amenity_type":"laundry","lat":40.6715524,"lng":-73.9880063,"h3_res7":"872a10774ffffff","h3_res8":"882a107741fffff","h3_res9":"892a107741bffff"},{"osm_id":2494384078,"name":"Magic Laundry Services","amenity_type":"laundry","lat":40.7741165,"lng":-73.9270013,"h3_res7":"872a100f2ffffff","h3_res8":"882a100f23fffff","h3_res9":"892a100f223ffff"},{"osm_id":2518039062,"name":"A&E Laundromat","amenity_type":"laundry","lat":40.731999,"lng":-73.8506175,"h3_res7":"872a100c5ffffff","h3_res8":"882a100c5dfffff","h3_res9":"892a100c5c7ffff"},{"osm_id":2545143714,"name":"Jiang Li Laundromat","amenity_type":"laundry","lat":40.66723,"lng":-73.8890476,"h3_res7":"872a100caffffff","h3_res8":"882a100cabfffff","h3_res9":"892a100caabffff"},{"osm_id":2545431424,"name":"Unknown","amenity_type":"laundry","lat":40.5531045,"lng":-74.1926499,"h3_res7":"872a1060effffff","h3_res8":"882a1060e1fffff","h3_res9":"892a1060e1bffff"},{"osm_id":2547140370,"name":"Sherlin Landromat","amenity_type":"laundry","lat":40.7157229,"lng":-73.7713425,"h3_res7":"872a100edffffff","h3_res8":"882a100ed9fffff","h3_res9":"892a100ed8bffff"},{"osm_id":2547209018,"name":"Village Bleachers Laundromat","amenity_type":"laundry","lat":40.7333843,"lng":-73.9937658,"h3_res7":"872a100d2ffffff","h3_res8":"882a100d27fffff","h3_res9":"892a100d267ffff"},{"osm_id":2547733518,"name":"5th Ave Laundromat","amenity_type":"laundry","lat":40.6618993,"lng":-73.9930559,"h3_res7":"872a10774ffffff","h3_res8":"882a107747fffff","h3_res9":"892a1077463ffff"},{"osm_id":2547745177,"name":"Lady Cleaners","amenity_type":"laundry","lat":40.6613772,"lng":-73.9967664,"h3_res7":"872a10774ffffff","h3_res8":"882a107747fffff","h3_res9":"892a107746bffff"},{"osm_id":2549908127,"name":"T&W Spring Laundry","amenity_type":"laundry","lat":40.6553957,"lng":-73.9565094,"h3_res7":"872a10775ffffff","h3_res8":"882a107759fffff","h3_res9":"892a1077597ffff"},{"osm_id":2549972135,"name":"KT Laundromat","amenity_type":"laundry","lat":40.684281,"lng":-73.9994698,"h3_res7":"872a10729ffffff","h3_res8":"882a107291fffff","h3_res9":"892a1072907ffff"},{"osm_id":2550055994,"name":"Drop & Go Laundromat","amenity_type":"laundry","lat":40.6795363,"lng":-73.9781842,"h3_res7":"872a100daffffff","h3_res8":"882a100da7fffff","h3_res9":"892a100da67ffff"},{"osm_id":2550089888,"name":"Green Earth Organic Ms Bubble","amenity_type":"laundry","lat":40.660176,"lng":-73.9836769,"h3_res7":"872a10774ffffff","h3_res8":"882a107743fffff","h3_res9":"892a1077423ffff"},{"osm_id":2550092411,"name":"Sud's on 8th Ave.","amenity_type":"laundry","lat":40.6615704,"lng":-73.9824933,"h3_res7":"872a10774ffffff","h3_res8":"882a107743fffff","h3_res9":"892a1077423ffff"},{"osm_id":2550140510,"name":"Fulton New Laundromat","amenity_type":"laundry","lat":40.6807742,"lng":-73.9513542,"h3_res7":"872a100d8ffffff","h3_res8":"882a100d87fffff","h3_res9":"892a100d86fffff"},{"osm_id":2550576208,"name":"6th Ave Laundromat","amenity_type":"laundry","lat":40.6704293,"lng":-73.9821544,"h3_res7":"872a10774ffffff","h3_res8":"882a107741fffff","h3_res9":"892a1077413ffff"},{"osm_id":2550581282,"name":"Mars Laundromat","amenity_type":"laundry","lat":40.6674162,"lng":-73.9846669,"h3_res7":"872a10774ffffff","h3_res8":"882a107741fffff","h3_res9":"892a1077403ffff"},{"osm_id":2550786605,"name":"MindGreen Laundry","amenity_type":"laundry","lat":40.7103747,"lng":-73.7942558,"h3_res7":"872a100e8ffffff","h3_res8":"882a100e8bfffff","h3_res9":"892a100e8b3ffff"},{"osm_id":2550990480,"name":"Yore Cleanner","amenity_type":"laundry","lat":40.7271758,"lng":-73.7869005,"h3_res7":"872a100ecffffff","h3_res8":"882a100ecbfffff","h3_res9":"892a100ecabffff"},{"osm_id":2551197360,"name":"Parsons Megawash Laundromat","amenity_type":"laundry","lat":40.7207705,"lng":-73.809019,"h3_res7":"872a100e8ffffff","h3_res8":"882a100e8dfffff","h3_res9":"892a100e8d3ffff"},{"osm_id":2551250657,"name":"mr. laundry","amenity_type":"laundry","lat":40.7184366,"lng":-73.8149264,"h3_res7":"872a100e8ffffff","h3_res8":"882a100ee3fffff","h3_res9":"892a100e8cbffff"},{"osm_id":2551281249,"name":"Island Laundromat","amenity_type":"laundry","lat":40.5377171,"lng":-74.1505665,"h3_res7":"872a1060dffffff","h3_res8":"882a1060d5fffff","h3_res9":"892a1060d57ffff"},{"osm_id":2552542737,"name":"JND Laundromat","amenity_type":"laundry","lat":40.6165481,"lng":-74.0336999,"h3_res7":"872a10755ffffff","h3_res8":"882a10755dfffff","h3_res9":"892a10755cfffff"},{"osm_id":2552708662,"name":"Top Original King Laundromat","amenity_type":"laundry","lat":40.6351322,"lng":-74.0267133,"h3_res7":"872a10773ffffff","h3_res8":"882a107735fffff","h3_res9":"892a107735bffff"},{"osm_id":2552720443,"name":"Starlight Laundromat","amenity_type":"laundry","lat":40.6334518,"lng":-74.0271535,"h3_res7":"872a10773ffffff","h3_res8":"882a107735fffff","h3_res9":"892a107734bffff"},{"osm_id":2552775387,"name":"Li's Family Laundromat","amenity_type":"laundry","lat":40.6361375,"lng":-74.0270046,"h3_res7":"872a10773ffffff","h3_res8":"882a107735fffff","h3_res9":"892a107735bffff"},{"osm_id":2552775409,"name":"3rd Avenue Laundry Chute","amenity_type":"laundry","lat":40.636975,"lng":-74.0253627,"h3_res7":"872a10773ffffff","h3_res8":"882a107723fffff","h3_res9":"892a1077227ffff"},{"osm_id":2552779068,"name":"Unknown","amenity_type":"laundry","lat":40.7296559,"lng":-73.7801457,"h3_res7":"872a100ecffffff","h3_res8":"882a100ecbfffff","h3_res9":"892a100ecb3ffff"},{"osm_id":2552890739,"name":"Fresh Scent Laundromat","amenity_type":"laundry","lat":40.7330957,"lng":-73.7946227,"h3_res7":"872a100ecffffff","h3_res8":"882a100ecdfffff","h3_res9":"892a100ecc7ffff"},{"osm_id":2552919213,"name":"MegaWash Laundromat & Dry Cleaners","amenity_type":"laundry","lat":40.7372311,"lng":-73.7779935,"h3_res7":"872a10052ffffff","h3_res8":"882a100523fffff","h3_res9":"892a100522fffff"},{"osm_id":2552966906,"name":"Excellent Laundromat","amenity_type":"laundry","lat":40.755519,"lng":-73.7668403,"h3_res7":"872a10056ffffff","h3_res8":"882a100529fffff","h3_res9":"892a1005293ffff"},{"osm_id":2553307463,"name":"Bayside Laundromat","amenity_type":"laundry","lat":40.748402,"lng":-73.7560944,"h3_res7":"872a10050ffffff","h3_res8":"882a100505fffff","h3_res9":"892a1005047ffff"},{"osm_id":2553343234,"name":"E & F Laundry Services","amenity_type":"laundry","lat":40.7408797,"lng":-73.7586176,"h3_res7":"872a10050ffffff","h3_res8":"882a100507fffff","h3_res9":"892a100506fffff"},{"osm_id":2553360470,"name":"Laundrybee","amenity_type":"laundry","lat":40.7402447,"lng":-73.7582626,"h3_res7":"872a10050ffffff","h3_res8":"882a100507fffff","h3_res9":"892a100506fffff"},{"osm_id":2553584223,"name":"Jamaica Wash","amenity_type":"laundry","lat":40.7081223,"lng":-73.7813403,"h3_res7":"872a100edffffff","h3_res8":"882a100ed1fffff","h3_res9":"892a100ed73ffff"},{"osm_id":2553635459,"name":"Unknown","amenity_type":"laundry","lat":40.7600036,"lng":-73.8799324,"h3_res7":"872a100f1ffffff","h3_res8":"882a100f11fffff","h3_res9":"892a100f107ffff"},{"osm_id":2553635472,"name":"New A & D Laundromat","amenity_type":"laundry","lat":40.7601821,"lng":-73.8782107,"h3_res7":"872a100f1ffffff","h3_res8":"882a100f1bfffff","h3_res9":"892a100f1abffff"},{"osm_id":2555510873,"name":"EZ Laundromat","amenity_type":"laundry","lat":40.5862736,"lng":-73.9714428,"h3_res7":"872a10741ffffff","h3_res8":"882a10741dfffff","h3_res9":"892a10741dbffff"},{"osm_id":2555703389,"name":"Stillwell Mega Wash","amenity_type":"laundry","lat":40.5909224,"lng":-73.9836631,"h3_res7":"872a10740ffffff","h3_res8":"882a107401fffff","h3_res9":"892a107400fffff"},{"osm_id":2557769194,"name":"Unknown","amenity_type":"laundry","lat":40.615046,"lng":-73.9799245,"h3_res7":"872a10744ffffff","h3_res8":"882a107445fffff","h3_res9":"892a1074443ffff"},{"osm_id":2561485196,"name":"JZ Laundromat","amenity_type":"laundry","lat":40.6343414,"lng":-74.0073986,"h3_res7":"872a10773ffffff","h3_res8":"882a107739fffff","h3_res9":"892a107738fffff"},{"osm_id":2561631116,"name":"Pure Joy Laundromat","amenity_type":"laundry","lat":40.6387357,"lng":-74.0167231,"h3_res7":"872a10773ffffff","h3_res8":"882a10773dfffff","h3_res9":"892a10773c3ffff"},{"osm_id":2561662336,"name":"Jie Mei Laundromat","amenity_type":"laundry","lat":40.6389034,"lng":-74.0165373,"h3_res7":"872a10773ffffff","h3_res8":"882a10773dfffff","h3_res9":"892a10773c3ffff"},{"osm_id":2561707920,"name":"Lucky Dragon Laundromat","amenity_type":"laundry","lat":40.6445828,"lng":-74.0182662,"h3_res7":"872a10772ffffff","h3_res8":"882a10772bfffff","h3_res9":"892a10772a3ffff"},{"osm_id":2561907051,"name":"33rd Street Laundromat","amenity_type":"laundry","lat":40.6561945,"lng":-74.0027792,"h3_res7":"872a10770ffffff","h3_res8":"882a10770dfffff","h3_res9":"892a10770c3ffff"},{"osm_id":2561930467,"name":"N D Laundromat","amenity_type":"laundry","lat":40.6428976,"lng":-73.989765,"h3_res7":"872a10770ffffff","h3_res8":"882a10770bfffff","h3_res9":"892a10770afffff"},{"osm_id":2561959529,"name":"Dahill Laundry","amenity_type":"laundry","lat":40.6421661,"lng":-73.9805587,"h3_res7":"872a10771ffffff","h3_res8":"882a107757fffff","h3_res9":"892a107756fffff"},{"osm_id":2561983226,"name":"TSS Laundromat","amenity_type":"laundry","lat":40.6444416,"lng":-73.9758732,"h3_res7":"872a10775ffffff","h3_res8":"882a107757fffff","h3_res9":"892a1077563ffff"},{"osm_id":2561990026,"name":"Quality Wash Center","amenity_type":"laundry","lat":40.6483609,"lng":-73.9791326,"h3_res7":"872a10775ffffff","h3_res8":"882a107755fffff","h3_res9":"892a107757bffff"},{"osm_id":2562123845,"name":"BK Laundry & Dry Cleaners","amenity_type":"laundry","lat":40.6650546,"lng":-73.9929563,"h3_res7":"872a10774ffffff","h3_res8":"882a107747fffff","h3_res9":"892a1077473ffff"},{"osm_id":2562129134,"name":"Park Slope Laundry","amenity_type":"laundry","lat":40.6681254,"lng":-73.9908448,"h3_res7":"872a10774ffffff","h3_res8":"882a107745fffff","h3_res9":"892a107740bffff"},{"osm_id":2562129139,"name":"J & J Laundry Land","amenity_type":"laundry","lat":40.6673336,"lng":-73.9915071,"h3_res7":"872a10774ffffff","h3_res8":"882a107745fffff","h3_res9":"892a1077447ffff"},{"osm_id":2562885623,"name":"Bright Laundry","amenity_type":"laundry","lat":40.5947093,"lng":-73.9509072,"h3_res7":"872a10745ffffff","h3_res8":"882a107451fffff","h3_res9":"892a1074503ffff"},{"osm_id":2562996664,"name":"Unknown","amenity_type":"laundry","lat":40.5937626,"lng":-73.9398632,"h3_res7":"872a10745ffffff","h3_res8":"882a10745bfffff","h3_res9":"892a10745a3ffff"},{"osm_id":2563014064,"name":"Laundromat Dry Cleaner","amenity_type":"laundry","lat":40.6000422,"lng":-73.9442223,"h3_res7":"872a10745ffffff","h3_res8":"882a107459fffff","h3_res9":"892a1074583ffff"},{"osm_id":2563439556,"name":"W & L Sister Laundromat","amenity_type":"laundry","lat":40.6349658,"lng":-73.9629338,"h3_res7":"872a10762ffffff","h3_res8":"882a107625fffff","h3_res9":"892a1076243ffff"},{"osm_id":2566613894,"name":"Cleaner Wash Laundromat","amenity_type":"laundry","lat":40.6606931,"lng":-73.9508294,"h3_res7":"872a100dbffffff","h3_res8":"882a100db3fffff","h3_res9":"892a100db23ffff"},{"osm_id":2566640796,"name":"Two Pioneer Laundromat","amenity_type":"laundry","lat":40.6614699,"lng":-73.9605859,"h3_res7":"872a100dbffffff","h3_res8":"882a100db7fffff","h3_res9":"892a100db67ffff"},{"osm_id":2566664985,"name":"Prospect Laundromat","amenity_type":"laundry","lat":40.6545629,"lng":-73.9616504,"h3_res7":"872a10775ffffff","h3_res8":"882a107759fffff","h3_res9":"892a1077583ffff"},{"osm_id":2566664991,"name":"Bubble Land Laundromat","amenity_type":"laundry","lat":40.6547052,"lng":-73.9598463,"h3_res7":"872a10775ffffff","h3_res8":"882a107759fffff","h3_res9":"892a1077583ffff"},{"osm_id":2566936034,"name":"Unknown","amenity_type":"laundry","lat":40.679488,"lng":-73.893093,"h3_res7":"872a100caffffff","h3_res8":"882a100cadfffff","h3_res9":"892a100cad7ffff"},{"osm_id":2566968409,"name":"Albany Wash n' Dry","amenity_type":"laundry","lat":40.6633818,"lng":-73.9401307,"h3_res7":"872a100dbffffff","h3_res8":"882a100dbbfffff","h3_res9":"892a100dba7ffff"},{"osm_id":2567049268,"name":"Laundomat","amenity_type":"laundry","lat":40.6655341,"lng":-73.9513572,"h3_res7":"872a100dbffffff","h3_res8":"882a100db1fffff","h3_res9":"892a100db07ffff"},{"osm_id":2567049286,"name":"Laundry Run","amenity_type":"laundry","lat":40.666117,"lng":-73.9506938,"h3_res7":"872a100dbffffff","h3_res8":"882a100db1fffff","h3_res9":"892a100db07ffff"},{"osm_id":2567052677,"name":"Laundromat","amenity_type":"laundry","lat":40.6664923,"lng":-73.9506578,"h3_res7":"872a100dbffffff","h3_res8":"882a100db1fffff","h3_res9":"892a100db07ffff"},{"osm_id":2567887286,"name":"The Stuy Wash-N-Dry","amenity_type":"laundry","lat":40.6873862,"lng":-73.9327975,"h3_res7":"872a100d8ffffff","h3_res8":"882a100d8bfffff","h3_res9":"892a100d8bbffff"},{"osm_id":2567915751,"name":"WMK Laundromat","amenity_type":"laundry","lat":40.6868032,"lng":-73.9444408,"h3_res7":"872a100d8ffffff","h3_res8":"882a100d81fffff","h3_res9":"892a100d80bffff"},{"osm_id":2567935919,"name":"Laundro Mark Lu","amenity_type":"laundry","lat":40.6865086,"lng":-73.9470415,"h3_res7":"872a100d8ffffff","h3_res8":"882a100d87fffff","h3_res9":"892a100d873ffff"},{"osm_id":2567946943,"name":"Clean Bubble Laundromat","amenity_type":"laundry","lat":40.6893821,"lng":-73.9512316,"h3_res7":"872a100d8ffffff","h3_res8":"882a100d85fffff","h3_res9":"892a100d843ffff"},{"osm_id":2567986493,"name":"E.N. & S. Laundromat","amenity_type":"laundry","lat":40.6931341,"lng":-73.946017,"h3_res7":"872a100d8ffffff","h3_res8":"882a100d8dfffff","h3_res9":"892a100d8cfffff"},{"osm_id":2567989953,"name":"New Magestic Laundry","amenity_type":"laundry","lat":40.6940032,"lng":-73.9521515,"h3_res7":"872a100d8ffffff","h3_res8":"882a100d85fffff","h3_res9":"892a100de27ffff"},{"osm_id":2568163556,"name":"Nice & Clean Laundromat","amenity_type":"laundry","lat":40.6948067,"lng":-73.9531516,"h3_res7":"872a100deffffff","h3_res8":"882a100de3fffff","h3_res9":"892a100de27ffff"},{"osm_id":2568310628,"name":"All Service Laundromat","amenity_type":"laundry","lat":40.6934989,"lng":-73.9762847,"h3_res7":"872a100daffffff","h3_res8":"882a100dadfffff","h3_res9":"892a100dacbffff"},{"osm_id":2568576399,"name":"Laundromat","amenity_type":"laundry","lat":40.6982448,"lng":-73.9342401,"h3_res7":"872a100dcffffff","h3_res8":"882a100dc7fffff","h3_res9":"892a100dc67ffff"},{"osm_id":2568667636,"name":"Mermaid Laundromat","amenity_type":"laundry","lat":40.70297,"lng":-73.9259127,"h3_res7":"872a100dcffffff","h3_res8":"882a100dc1fffff","h3_res9":"892a100dc07ffff"},{"osm_id":2568710153,"name":"J&K Laundromat","amenity_type":"laundry","lat":40.6646975,"lng":-73.9802898,"h3_res7":"872a10774ffffff","h3_res8":"882a107741fffff","h3_res9":"892a1077407ffff"},{"osm_id":2568784635,"name":"Apollo Laundromat","amenity_type":"laundry","lat":40.7017155,"lng":-73.9050812,"h3_res7":"872a100c3ffffff","h3_res8":"882a100c37fffff","h3_res9":"892a100c363ffff"},{"osm_id":2568805404,"name":"Laundromat Wash & Dry","amenity_type":"laundry","lat":40.6715559,"lng":-73.9775087,"h3_res7":"872a10774ffffff","h3_res8":"882a107749fffff","h3_res9":"892a107748fffff"},{"osm_id":2568817534,"name":"Ocean Laundromat","amenity_type":"laundry","lat":40.7056696,"lng":-73.9188409,"h3_res7":"872a100dcffffff","h3_res8":"882a100dcbfffff","h3_res9":"892a100dcbbffff"},{"osm_id":2568908043,"name":"Happy Laundromat 2","amenity_type":"laundry","lat":40.7020266,"lng":-73.8968079,"h3_res7":"872a100c3ffffff","h3_res8":"882a100c33fffff","h3_res9":"892a100c33bffff"},{"osm_id":2569762824,"name":"L&Z Austin Laundromat","amenity_type":"laundry","lat":40.7241133,"lng":-73.8553044,"h3_res7":"872a100c5ffffff","h3_res8":"882a100c51fffff","h3_res9":"892a100c50fffff"},{"osm_id":2569803347,"name":"Neighborhood Laundry & Cleaners","amenity_type":"laundry","lat":40.7209794,"lng":-73.855405,"h3_res7":"872a100c5ffffff","h3_res8":"882a100c57fffff","h3_res9":"892a100c577ffff"},{"osm_id":2569964220,"name":"Sweet Lemonland","amenity_type":"laundry","lat":40.7338977,"lng":-73.8502866,"h3_res7":"872a100c5ffffff","h3_res8":"882a100c5dfffff","h3_res9":"892a100c5d7ffff"},{"osm_id":2570191130,"name":"Unknown","amenity_type":"laundry","lat":40.748381,"lng":-73.8756813,"h3_res7":"872a100c4ffffff","h3_res8":"882a100c45fffff","h3_res9":"892a100c457ffff"},{"osm_id":2570218633,"name":"Unknown","amenity_type":"laundry","lat":40.7639417,"lng":-73.8819797,"h3_res7":"872a100f1ffffff","h3_res8":"882a100f11fffff","h3_res9":"892a100f103ffff"},{"osm_id":2570584634,"name":"Leo Lin Laundromat","amenity_type":"laundry","lat":40.7077019,"lng":-73.8022704,"h3_res7":"872a100e8ffffff","h3_res8":"882a100e81fffff","h3_res9":"892a100e8abffff"},{"osm_id":2573054913,"name":"Glendale Premier Laundromat","amenity_type":"laundry","lat":40.7016543,"lng":-73.8829168,"h3_res7":"872a100c3ffffff","h3_res8":"882a100c3bfffff","h3_res9":"892a100c3a7ffff"},{"osm_id":2667498118,"name":"New Wash World","amenity_type":"laundry","lat":40.7641079,"lng":-73.923417,"h3_res7":"872a100f3ffffff","h3_res8":"882a100f35fffff","h3_res9":"892a100f343ffff"},{"osm_id":2701913444,"name":"Ms. Bubbles of Park Slope","amenity_type":"laundry","lat":40.6787791,"lng":-73.9734012,"h3_res7":"872a100daffffff","h3_res8":"882a100da3fffff","h3_res9":"892a100da2bffff"},{"osm_id":2709955328,"name":"Unknown","amenity_type":"laundry","lat":40.7653411,"lng":-73.991086,"h3_res7":"872a10725ffffff","h3_res8":"882a107259fffff","h3_res9":"892a1072597ffff"},{"osm_id":2713434234,"name":"Ms. Bubble","amenity_type":"laundry","lat":40.7185212,"lng":-73.9829627,"h3_res7":"872a100d3ffffff","h3_res8":"882a100d37fffff","h3_res9":"892a100d36bffff"},{"osm_id":2717683796,"name":"Laundry Land","amenity_type":"laundry","lat":40.597832,"lng":-73.7664291,"h3_res7":"872a10380ffffff","h3_res8":"882a10380bfffff","h3_res9":"892a10380abffff"},{"osm_id":2724066790,"name":"Drop Spot Cleaners","amenity_type":"laundry","lat":40.7755454,"lng":-73.9505635,"h3_res7":"872a10089ffffff","h3_res8":"882a10089bfffff","h3_res9":"892a10089afffff"},{"osm_id":2745543210,"name":"Chesterfield Cleaners","amenity_type":"laundry","lat":40.7834639,"lng":-73.9778572,"h3_res7":"872a1008bffffff","h3_res8":"882a1008b9fffff","h3_res9":"892a1008b97ffff"},{"osm_id":2759055328,"name":"Amsterdam Cleaners","amenity_type":"laundry","lat":40.790158,"lng":-73.9734408,"h3_res7":"872a10088ffffff","h3_res8":"882a100883fffff","h3_res9":"892a1008823ffff"},{"osm_id":2761407488,"name":"Oxford Cleaners","amenity_type":"laundry","lat":40.7973654,"lng":-73.9694831,"h3_res7":"872a10088ffffff","h3_res8":"882a100881fffff","h3_res9":"892a1008817ffff"},{"osm_id":2761464874,"name":"Tower West Cleaners","amenity_type":"laundry","lat":40.7968693,"lng":-73.9705126,"h3_res7":"872a10088ffffff","h3_res8":"882a100881fffff","h3_res9":"892a1008817ffff"},{"osm_id":2761552425,"name":"West End Laundromat","amenity_type":"laundry","lat":40.8022993,"lng":-73.9683095,"h3_res7":"872a10088ffffff","h3_res8":"882a100889fffff","h3_res9":"892a100888fffff"},{"osm_id":2761630111,"name":"Helen's","amenity_type":"laundry","lat":40.7989455,"lng":-73.9614542,"h3_res7":"872a10088ffffff","h3_res8":"882a10088bfffff","h3_res9":"892a10088b3ffff"},{"osm_id":2761651136,"name":"SLN Cleaners","amenity_type":"laundry","lat":40.8005612,"lng":-73.9616506,"h3_res7":"872a10088ffffff","h3_res8":"882a1008d5fffff","h3_res9":"892a1008d4bffff"},{"osm_id":2761663414,"name":"All Fresh Laundry & Cleaners","amenity_type":"laundry","lat":40.8009093,"lng":-73.9655986,"h3_res7":"872a10088ffffff","h3_res8":"882a100889fffff","h3_res9":"892a1008887ffff"},{"osm_id":2761815305,"name":"Unknown","amenity_type":"laundry","lat":40.7891648,"lng":-73.9408185,"h3_res7":"872a1008dffffff","h3_res8":"882a1008d3fffff","h3_res9":"892a1008d27ffff"},{"osm_id":2767863020,"name":"Unknown","amenity_type":"laundry","lat":40.8193128,"lng":-73.9404428,"h3_res7":"872a100abffffff","h3_res8":"882a100ab5fffff","h3_res9":"892a100ab43ffff"},{"osm_id":2767863027,"name":"King Laundromat Center","amenity_type":"laundry","lat":40.8194118,"lng":-73.9403706,"h3_res7":"872a100abffffff","h3_res8":"882a100ab5fffff","h3_res9":"892a100ab43ffff"},{"osm_id":2768074413,"name":"Laundry Express","amenity_type":"laundry","lat":40.8224741,"lng":-73.9414644,"h3_res7":"872a100abffffff","h3_res8":"882a100ab5fffff","h3_res9":"892a100ab5bffff"},{"osm_id":2768125221,"name":"Super Plan Laundromat","amenity_type":"laundry","lat":40.8258128,"lng":-73.943228,"h3_res7":"872a100aaffffff","h3_res8":"882a100aa3fffff","h3_res9":"892a100aa27ffff"},{"osm_id":2768316981,"name":"Laundromat","amenity_type":"laundry","lat":40.8228216,"lng":-73.9491325,"h3_res7":"872a1008cffffff","h3_res8":"882a1008c9fffff","h3_res9":"892a1008c97ffff"},{"osm_id":2782255521,"name":"Unknown","amenity_type":"laundry","lat":40.7084914,"lng":-73.9577001,"h3_res7":"872a100deffffff","h3_res8":"882a100de1fffff","h3_res9":"892a100de1bffff"},{"osm_id":2788464975,"name":"C.G. Laundromat","amenity_type":"laundry","lat":40.6933588,"lng":-73.7995575,"h3_res7":"872a100e9ffffff","h3_res8":"882a100e95fffff","h3_res9":"892a100e957ffff"},{"osm_id":2793693008,"name":"M&W Laundromat","amenity_type":"laundry","lat":40.7331334,"lng":-73.9549029,"h3_res7":"872a100d0ffffff","h3_res8":"882a100d03fffff","h3_res9":"892a100d027ffff"},{"osm_id":2796762249,"name":"Bubbles N Go Laundromat","amenity_type":"laundry","lat":40.8354417,"lng":-73.9396245,"h3_res7":"872a100aaffffff","h3_res8":"882a100aabfffff","h3_res9":"892a100aabbffff"},{"osm_id":2809731012,"name":"Connie's Laundromat","amenity_type":"laundry","lat":40.8727279,"lng":-73.8882696,"h3_res7":"872a10012ffffff","h3_res8":"882a100121fffff","h3_res9":"892a100120fffff"},{"osm_id":2811329278,"name":"Unknown","amenity_type":"laundry","lat":40.9052303,"lng":-73.9011762,"h3_res7":"872a1018bffffff","h3_res8":"882a1018b7fffff","h3_res9":"892a1018b6bffff"},{"osm_id":2839789049,"name":"Laundromat","amenity_type":"laundry","lat":40.7130532,"lng":-73.9410388,"h3_res7":"872a100d1ffffff","h3_res8":"882a100d13fffff","h3_res9":"892a100d12fffff"},{"osm_id":2840985122,"name":"Bubble Laundromat","amenity_type":"laundry","lat":40.7167655,"lng":-73.94454,"h3_res7":"872a100d1ffffff","h3_res8":"882a100d13fffff","h3_res9":"892a100d12bffff"},{"osm_id":2842610378,"name":"Driggs Ave Laundromat & Dry Cleaners","amenity_type":"laundry","lat":40.7227663,"lng":-73.9480352,"h3_res7":"872a100d1ffffff","h3_res8":"882a100d17fffff","h3_res9":"892a100d173ffff"},{"osm_id":2842829037,"name":"Unknown","amenity_type":"laundry","lat":40.727232,"lng":-73.9518971,"h3_res7":"872a100d1ffffff","h3_res8":"882a100d15fffff","h3_res9":"892a100d143ffff"},{"osm_id":2843120217,"name":"Unknown","amenity_type":"laundry","lat":40.7109931,"lng":-73.9050519,"h3_res7":"872a100c3ffffff","h3_res8":"882a100c35fffff","h3_res9":"892a100c353ffff"},{"osm_id":2843208366,"name":"Laundry Express","amenity_type":"laundry","lat":40.7208445,"lng":-73.9075998,"h3_res7":"872a100c2ffffff","h3_res8":"882a100c23fffff","h3_res9":"892a100c233ffff"},{"osm_id":2844224348,"name":"301 Laundromat","amenity_type":"laundry","lat":40.7276373,"lng":-73.8953262,"h3_res7":"872a100c0ffffff","h3_res8":"882a100c05fffff","h3_res9":"892a100c04bffff"},{"osm_id":2844328762,"name":"Daisy Laundromat","amenity_type":"laundry","lat":40.7351206,"lng":-73.8952951,"h3_res7":"872a100c6ffffff","h3_res8":"882a100c63fffff","h3_res9":"892a100c623ffff"},{"osm_id":2844359313,"name":"Peace Laundromat","amenity_type":"laundry","lat":40.7316326,"lng":-73.8999689,"h3_res7":"872a100c2ffffff","h3_res8":"882a100c29fffff","h3_res9":"892a100c297ffff"},{"osm_id":2844472309,"name":"Grand Simonson Laundromat","amenity_type":"laundry","lat":40.7357515,"lng":-73.8810074,"h3_res7":"872a100c0ffffff","h3_res8":"882a100c0dfffff","h3_res9":"892a100c0d3ffff"},{"osm_id":2844631247,"name":"62 Spin.com Laundromat","amenity_type":"laundry","lat":40.7456721,"lng":-73.9014172,"h3_res7":"872a100c6ffffff","h3_res8":"882a100c61fffff","h3_res9":"892a100c60bffff"},{"osm_id":2844759148,"name":"58th  ST. Laudromat","amenity_type":"laundry","lat":40.7430275,"lng":-73.9073365,"h3_res7":"872a100c6ffffff","h3_res8":"882a100c65fffff","h3_res9":"892a100c647ffff"},{"osm_id":2844871587,"name":"Unknown","amenity_type":"laundry","lat":40.7393141,"lng":-73.9206278,"h3_res7":"872a100d5ffffff","h3_res8":"882a100d5bfffff","h3_res9":"892a100d5afffff"},{"osm_id":2844895669,"name":"Fresh Laundromat & Cleaners","amenity_type":"laundry","lat":40.7393223,"lng":-73.9173996,"h3_res7":"872a100d5ffffff","h3_res8":"882a100d5bfffff","h3_res9":"892a100d5afffff"},{"osm_id":2844936146,"name":"Ha Sunnyside Laundromat & Dry Cleaning","amenity_type":"laundry","lat":40.7401213,"lng":-73.9253595,"h3_res7":"872a100d5ffffff","h3_res8":"882a100d51fffff","h3_res9":"892a100d507ffff"},{"osm_id":2844942057,"name":"Wash King","amenity_type":"laundry","lat":40.7416146,"lng":-73.9200912,"h3_res7":"872a100d5ffffff","h3_res8":"882a100d5bfffff","h3_res9":"892a100d5abffff"},{"osm_id":2844950248,"name":"Laundromat","amenity_type":"laundry","lat":40.7403132,"lng":-73.9235917,"h3_res7":"872a100d5ffffff","h3_res8":"882a100d51fffff","h3_res9":"892a100d507ffff"},{"osm_id":2844971052,"name":"Laundrybee","amenity_type":"laundry","lat":40.743479,"lng":-73.9239856,"h3_res7":"872a100d5ffffff","h3_res8":"882a100d51fffff","h3_res9":"892a100d517ffff"},{"osm_id":2844976427,"name":"Dry Cleaning & Laundry","amenity_type":"laundry","lat":40.7435462,"lng":-73.9187396,"h3_res7":"872a100d5ffffff","h3_res8":"882a100d5bfffff","h3_res9":"892a100d5bbffff"},{"osm_id":2844999920,"name":"NYC Laundry, Inc.","amenity_type":"laundry","lat":40.7450155,"lng":-73.9203793,"h3_res7":"872a100d5ffffff","h3_res8":"882a100d59fffff","h3_res9":"892a100d5bbffff"},{"osm_id":2844999935,"name":"44 Launder Center","amenity_type":"laundry","lat":40.7449638,"lng":-73.9199934,"h3_res7":"872a100d5ffffff","h3_res8":"882a100d59fffff","h3_res9":"892a100d5bbffff"},{"osm_id":2845010842,"name":"43 & 43 Cleaners","amenity_type":"laundry","lat":40.7451526,"lng":-73.9215979,"h3_res7":"872a100d5ffffff","h3_res8":"882a100d59fffff","h3_res9":"892a100d58fffff"},{"osm_id":2845010845,"name":"Lavanderia Express","amenity_type":"laundry","lat":40.7451379,"lng":-73.9214689,"h3_res7":"872a100d5ffffff","h3_res8":"882a100d59fffff","h3_res9":"892a100d58fffff"},{"osm_id":2845014925,"name":"Sunnyside Laundromat Dry Cleaning","amenity_type":"laundry","lat":40.7457169,"lng":-73.9242955,"h3_res7":"872a100d5ffffff","h3_res8":"882a100d51fffff","h3_res9":"892a100d513ffff"},{"osm_id":2845177354,"name":"Unknown","amenity_type":"laundry","lat":40.75417,"lng":-73.9084842,"h3_res7":"872a100f3ffffff","h3_res8":"882a100f33fffff","h3_res9":"892a100f337ffff"},{"osm_id":2846335765,"name":"Unknown","amenity_type":"laundry","lat":40.7415874,"lng":-73.8840677,"h3_res7":"872a100c6ffffff","h3_res8":"882a100c6bfffff","h3_res9":"892a100c6b7ffff"},{"osm_id":2846596413,"name":"Unknown","amenity_type":"laundry","lat":40.7567156,"lng":-73.9261891,"h3_res7":"872a100f3ffffff","h3_res8":"882a100f37fffff","h3_res9":"892a100f36bffff"},{"osm_id":2846621371,"name":"Azul Laundromat","amenity_type":"laundry","lat":40.7585305,"lng":-73.9251187,"h3_res7":"872a100f3ffffff","h3_res8":"882a100f37fffff","h3_res9":"892a100f37bffff"},{"osm_id":2846751408,"name":"All Season Laundry Inc","amenity_type":"laundry","lat":40.7628739,"lng":-73.9200702,"h3_res7":"872a100f3ffffff","h3_res8":"882a100f35fffff","h3_res9":"892a100f347ffff"},{"osm_id":2846942578,"name":"AAA Laundry","amenity_type":"laundry","lat":40.7655794,"lng":-73.9306471,"h3_res7":"872a100d4ffffff","h3_res8":"882a100d49fffff","h3_res9":"892a100d497ffff"},{"osm_id":2846965688,"name":"Lee Lucky","amenity_type":"laundry","lat":40.7574998,"lng":-73.9313684,"h3_res7":"872a100d4ffffff","h3_res8":"882a100d4bfffff","h3_res9":"892a100d4a7ffff"},{"osm_id":2847009754,"name":"Jodie King Laundromat","amenity_type":"laundry","lat":40.7706572,"lng":-73.9255006,"h3_res7":"872a100f2ffffff","h3_res8":"882a100f23fffff","h3_res9":"892a100f227ffff"},{"osm_id":2847034469,"name":"FM Laundromat","amenity_type":"laundry","lat":40.7743212,"lng":-73.926906,"h3_res7":"872a100f2ffffff","h3_res8":"882a100f23fffff","h3_res9":"892a100f223ffff"},{"osm_id":2847077796,"name":"Unknown","amenity_type":"laundry","lat":40.7441558,"lng":-73.9533879,"h3_res7":"872a100d0ffffff","h3_res8":"882a100d01fffff","h3_res9":"892a100d017ffff"},{"osm_id":2847155484,"name":"Unknown","amenity_type":"laundry","lat":40.7570401,"lng":-73.9443665,"h3_res7":"872a100d4ffffff","h3_res8":"882a100d43fffff","h3_res9":"892a100d43bffff"},{"osm_id":2850982604,"name":"Happy Laundromat","amenity_type":"laundry","lat":40.7592456,"lng":-73.7690238,"h3_res7":"872a10056ffffff","h3_res8":"882a100567fffff","h3_res9":"892a1005667ffff"},{"osm_id":2853091762,"name":"Unknown","amenity_type":"laundry","lat":40.7698108,"lng":-73.9019876,"h3_res7":"872a100f3ffffff","h3_res8":"882a100f39fffff","h3_res9":"892a100f393ffff"},{"osm_id":2853133642,"name":"Unknown","amenity_type":"laundry","lat":40.7736991,"lng":-73.9070251,"h3_res7":"872a100f0ffffff","h3_res8":"882a100f07fffff","h3_res9":"892a100f067ffff"},{"osm_id":2853223278,"name":"Famous Cleaners","amenity_type":"laundry","lat":40.7792876,"lng":-73.9149011,"h3_res7":"872a100f2ffffff","h3_res8":"882a100f2bfffff","h3_res9":"892a100f2b7ffff"},{"osm_id":2853295450,"name":"Washlava","amenity_type":"laundry","lat":40.7820572,"lng":-73.914031,"h3_res7":"872a100f0ffffff","h3_res8":"882a100f05fffff","h3_res9":"892a100f04bffff"},{"osm_id":2853426888,"name":"iWash","amenity_type":"laundry","lat":40.7703081,"lng":-73.8936001,"h3_res7":"872a100f1ffffff","h3_res8":"882a100f03fffff","h3_res9":"892a100f027ffff"},{"osm_id":2853435886,"name":"Unknown","amenity_type":"laundry","lat":40.762743,"lng":-73.8907499,"h3_res7":"872a100f1ffffff","h3_res8":"882a100f15fffff","h3_res9":"892a100f147ffff"},{"osm_id":2853481121,"name":"Mr. Bubbles Laundromat","amenity_type":"laundry","lat":40.7630472,"lng":-73.8743953,"h3_res7":"872a100f1ffffff","h3_res8":"882a100f1bfffff","h3_res9":"892a100f1bbffff"},{"osm_id":2858095291,"name":"Anna's Laundromat","amenity_type":"laundry","lat":40.8428798,"lng":-73.851091,"h3_res7":"872a1001effffff","h3_res8":"882a1001e9fffff","h3_res9":"892a1001e8bffff"},{"osm_id":2860335783,"name":"Carnegie Linen Services Inc","amenity_type":"laundry","lat":40.8032138,"lng":-73.907646,"h3_res7":"872a100f6ffffff","h3_res8":"882a100f69fffff","h3_res9":"892a100f68fffff"},{"osm_id":2861959848,"name":"Unknown","amenity_type":"laundry","lat":40.6893196,"lng":-73.827761,"h3_res7":"872a100ebffffff","h3_res8":"882a100eb7fffff","h3_res9":"892a100eb73ffff"},{"osm_id":2869029189,"name":"Laurelton Laundromat","amenity_type":"laundry","lat":40.6772192,"lng":-73.7432462,"h3_res7":"872a1005bffffff","h3_res8":"882a1005b1fffff","h3_res9":"892a1005b13ffff"},{"osm_id":2870454392,"name":"Hollis Ave Wash & Dry","amenity_type":"laundry","lat":40.7072596,"lng":-73.7508079,"h3_res7":"872a1005effffff","h3_res8":"882a1005e7fffff","h3_res9":"892a1005e77ffff"},{"osm_id":2870464737,"name":"Jaslynn Laundromat","amenity_type":"laundry","lat":40.7061371,"lng":-73.7560934,"h3_res7":"872a1005effffff","h3_res8":"882a1005e7fffff","h3_res9":"892a1005e63ffff"},{"osm_id":2882294796,"name":"Jasmine Laundromat","amenity_type":"laundry","lat":40.740469,"lng":-73.8152327,"h3_res7":"872a100e1ffffff","h3_res8":"882a100e17fffff","h3_res9":"892a100e163ffff"},{"osm_id":2882618253,"name":"mr. machine Laundormat","amenity_type":"laundry","lat":40.7542175,"lng":-73.8224791,"h3_res7":"872a100e0ffffff","h3_res8":"882a100e03fffff","h3_res9":"892a100e02fffff"},{"osm_id":2883913634,"name":"ez clean laundromat","amenity_type":"laundry","lat":40.7797733,"lng":-73.8461743,"h3_res7":"872a100e6ffffff","h3_res8":"882a100e67fffff","h3_res9":"892a100e673ffff"},{"osm_id":2884031668,"name":"Giant Laundromat","amenity_type":"laundry","lat":40.7474213,"lng":-73.8633876,"h3_res7":"872a100c4ffffff","h3_res8":"882a100c41fffff","h3_res9":"892a100c48fffff"},{"osm_id":2884061645,"name":"Fun Ree Laundromat","amenity_type":"laundry","lat":40.7415948,"lng":-73.8797265,"h3_res7":"872a100c4ffffff","h3_res8":"882a100c47fffff","h3_res9":"892a100c47bffff"},{"osm_id":2884332956,"name":"Junction Inc Laundromat","amenity_type":"laundry","lat":40.7584924,"lng":-73.8743275,"h3_res7":"872a100f1ffffff","h3_res8":"882a100f1bfffff","h3_res9":"892a100f1afffff"},{"osm_id":2884412668,"name":"La Sirena Laundromat","amenity_type":"laundry","lat":40.7499099,"lng":-73.8548392,"h3_res7":"872a100c4ffffff","h3_res8":"882a100c49fffff","h3_res9":"892a100c497ffff"},{"osm_id":2895553233,"name":"Xu Laundromat","amenity_type":"laundry","lat":40.7096089,"lng":-73.7955667,"h3_res7":"872a100e8ffffff","h3_res8":"882a100e8bfffff","h3_res9":"892a100e8b3ffff"},{"osm_id":2902109922,"name":"Clean Rite Center","amenity_type":"laundry","lat":40.7433838,"lng":-73.9143429,"h3_res7":"872a100d5ffffff","h3_res8":"882a100d5bfffff","h3_res9":"892a100d5b3ffff"},{"osm_id":2946173097,"name":"Plan 452 Spin","amenity_type":"laundry","lat":40.754142,"lng":-73.9955131,"h3_res7":"872a10725ffffff","h3_res8":"882a10725bfffff","h3_res9":"892a10725afffff"},{"osm_id":3154231929,"name":"Wash & Play Laundromat","amenity_type":"laundry","lat":40.6873129,"lng":-73.9750979,"h3_res7":"872a100daffffff","h3_res8":"882a100da1fffff","h3_res9":"892a100da0bffff"},{"osm_id":3154321079,"name":"Bubbles & Suds Laundromat","amenity_type":"laundry","lat":40.6453262,"lng":-74.0134394,"h3_res7":"872a10770ffffff","h3_res8":"882a10772bfffff","h3_res9":"892a10772b7ffff"},{"osm_id":3380036547,"name":"Laundry Giant","amenity_type":"laundry","lat":40.8689981,"lng":-73.896008,"h3_res7":"872a10012ffffff","h3_res8":"882a100127fffff","h3_res9":"892a1001263ffff"},{"osm_id":3569402138,"name":"Unknown","amenity_type":"laundry","lat":40.7595244,"lng":-73.9363192,"h3_res7":"872a100d4ffffff","h3_res8":"882a100d4bfffff","h3_res9":"892a100d4abffff"},{"osm_id":3569402189,"name":"Unknown","amenity_type":"laundry","lat":40.760622,"lng":-73.9390021,"h3_res7":"872a100d4ffffff","h3_res8":"882a100d41fffff","h3_res9":"892a100d417ffff"},{"osm_id":3577895808,"name":"Unknown","amenity_type":"laundry","lat":40.7584943,"lng":-73.9250799,"h3_res7":"872a100f3ffffff","h3_res8":"882a100f37fffff","h3_res9":"892a100f37bffff"},{"osm_id":3577908694,"name":"Unknown","amenity_type":"laundry","lat":40.7606713,"lng":-73.9222925,"h3_res7":"872a100f3ffffff","h3_res8":"882a100f37fffff","h3_res9":"892a100f347ffff"},{"osm_id":3578035840,"name":"Unknown","amenity_type":"laundry","lat":40.641472,"lng":-73.9633846,"h3_res7":"872a10775ffffff","h3_res8":"882a107753fffff","h3_res9":"892a1077537ffff"},{"osm_id":3584290131,"name":"Chow's Laundry","amenity_type":"laundry","lat":40.7611005,"lng":-73.9232156,"h3_res7":"872a100f3ffffff","h3_res8":"882a100f35fffff","h3_res9":"892a100f347ffff"},{"osm_id":3627536667,"name":"ACM Suds 3802","amenity_type":"laundry","lat":40.8347208,"lng":-73.944072,"h3_res7":"872a100aaffffff","h3_res8":"882a100aa1fffff","h3_res9":"892a100aa07ffff"},{"osm_id":3695530689,"name":"Zen & Wei Laundromat","amenity_type":"laundry","lat":40.7486205,"lng":-73.8910125,"h3_res7":"872a100c6ffffff","h3_res8":"882a100c69fffff","h3_res9":"892a100c68fffff"},{"osm_id":3854498678,"name":"New Absolute Laundry - Dry Clean","amenity_type":"laundry","lat":40.7432848,"lng":-73.9818098,"h3_res7":"872a100d2ffffff","h3_res8":"882a100d21fffff","h3_res9":"892a100d28fffff"},{"osm_id":3860735502,"name":"Laundry Day","amenity_type":"laundry","lat":40.761855,"lng":-73.924223,"h3_res7":"872a100f3ffffff","h3_res8":"882a100f35fffff","h3_res9":"892a100f34fffff"},{"osm_id":3862903958,"name":"Mee Laundromat and Cleaners","amenity_type":"laundry","lat":40.754771,"lng":-73.933591,"h3_res7":"872a100d4ffffff","h3_res8":"882a100d5dfffff","h3_res9":"892a100d5dbffff"},{"osm_id":3863002357,"name":"Mr Cleaner’s Laundromat","amenity_type":"laundry","lat":40.778962,"lng":-73.914442,"h3_res7":"872a100f2ffffff","h3_res8":"882a100f2bfffff","h3_res9":"892a100f2b7ffff"},{"osm_id":3863051357,"name":"Suds 'r' us","amenity_type":"laundry","lat":40.758012,"lng":-73.928853,"h3_res7":"872a100d4ffffff","h3_res8":"882a100d4bfffff","h3_res9":"892a100d4b7ffff"},{"osm_id":4015185753,"name":"Unknown","amenity_type":"laundry","lat":40.8348,"lng":-73.8707533,"h3_res7":"872a1001effffff","h3_res8":"882a100adbfffff","h3_res9":"892a100adb7ffff"},{"osm_id":4149654068,"name":"Jin Shan Laundrmat","amenity_type":"laundry","lat":40.6755807,"lng":-73.956029,"h3_res7":"872a100dbffffff","h3_res8":"882a100dbdfffff","h3_res9":"892a100dbc3ffff"},{"osm_id":4179974712,"name":"Li & Wu Hillside Laundromat Inc.","amenity_type":"laundry","lat":40.7112991,"lng":-73.7918818,"h3_res7":"872a100e8ffffff","h3_res8":"882a100ed5fffff","h3_res9":"892a100ed4bffff"},{"osm_id":4195507597,"name":"Brooklynites Laundry","amenity_type":"laundry","lat":40.7298845,"lng":-73.9506953,"h3_res7":"872a100d1ffffff","h3_res8":"882a100d15fffff","h3_res9":"892a100d153ffff"},{"osm_id":4213034146,"name":"Wan Qiang Laundromat","amenity_type":"laundry","lat":40.7071889,"lng":-73.7891597,"h3_res7":"872a100edffffff","h3_res8":"882a100ed7fffff","h3_res9":"892a100ed7bffff"},{"osm_id":4237831697,"name":"Big J's Laundromat","amenity_type":"laundry","lat":40.7117311,"lng":-73.7896393,"h3_res7":"872a100edffffff","h3_res8":"882a100ed5fffff","h3_res9":"892a100ed4fffff"},{"osm_id":4305351593,"name":"City Island Laundromat","amenity_type":"laundry","lat":40.8474034,"lng":-73.7863091,"h3_res7":"872a10003ffffff","h3_res8":"882a100039fffff","h3_res9":"892a1000393ffff"},{"osm_id":4305351599,"name":"On Board Laundromat","amenity_type":"laundry","lat":40.8476192,"lng":-73.7868505,"h3_res7":"872a10003ffffff","h3_res8":"882a100039fffff","h3_res9":"892a1000393ffff"},{"osm_id":4367694590,"name":"Unknown","amenity_type":"laundry","lat":40.672418,"lng":-73.9417632,"h3_res7":"872a100dbffffff","h3_res8":"882a100db9fffff","h3_res9":"892a100d94bffff"},{"osm_id":4414353609,"name":"The Stuy Wash-N-Dry","amenity_type":"laundry","lat":40.6834852,"lng":-73.9437962,"h3_res7":"872a100d8ffffff","h3_res8":"882a100d87fffff","h3_res9":"892a100d877ffff"},{"osm_id":4431954769,"name":"Unknown","amenity_type":"laundry","lat":40.6785621,"lng":-73.9208617,"h3_res7":"872a100d9ffffff","h3_res8":"882a100d99fffff","h3_res9":"892a100d99bffff"},{"osm_id":4491464940,"name":"Quick Clean","amenity_type":"laundry","lat":40.7003016,"lng":-73.916326,"h3_res7":"872a100dcffffff","h3_res8":"882a100dcbfffff","h3_res9":"892a100dcafffff"},{"osm_id":4528315209,"name":"Red Hook Laundromat","amenity_type":"laundry","lat":40.6798319,"lng":-74.0102142,"h3_res7":"872a10729ffffff","h3_res8":"882a107297fffff","h3_res9":"892a1072963ffff"},{"osm_id":4745452325,"name":"shoo shoo","amenity_type":"laundry","lat":40.6487527,"lng":-73.9001975,"h3_res7":"872a10764ffffff","h3_res8":"882a10764bfffff","h3_res9":"892a10764a3ffff"},{"osm_id":4855899222,"name":"Micky's Dry Cleaners","amenity_type":"laundry","lat":40.590781,"lng":-73.7966609,"h3_res7":"872a10382ffffff","h3_res8":"882a103823fffff","h3_res9":"892a1038237ffff"},{"osm_id":4872513523,"name":"Delancey Laundromat","amenity_type":"laundry","lat":40.7198101,"lng":-73.9931785,"h3_res7":"872a1072cffffff","h3_res8":"882a1072cbfffff","h3_res9":"892a1072cabffff"},{"osm_id":4947594522,"name":"Load Laundromat","amenity_type":"laundry","lat":40.729178,"lng":-73.9778586,"h3_res7":"872a100d3ffffff","h3_res8":"882a100d3dfffff","h3_res9":"892a100d3cfffff"},{"osm_id":4969057544,"name":"S & J Laundromat","amenity_type":"laundry","lat":40.7957271,"lng":-73.9463398,"h3_res7":"872a1008dffffff","h3_res8":"882a1008d1fffff","h3_res9":"892a1008d0fffff"},{"osm_id":4969114920,"name":"Laundry Time","amenity_type":"laundry","lat":40.7882914,"lng":-73.9473102,"h3_res7":"872a1008dffffff","h3_res8":"882a100899fffff","h3_res9":"892a1008993ffff"},{"osm_id":4971119411,"name":"Sunrise Laundromat","amenity_type":"laundry","lat":40.7977556,"lng":-73.9391696,"h3_res7":"872a1008dffffff","h3_res8":"882a1008dbfffff","h3_res9":"892a1008d17ffff"},{"osm_id":4977763147,"name":"Laundromat","amenity_type":"laundry","lat":40.6844919,"lng":-73.8323518,"h3_res7":"872a100ebffffff","h3_res8":"882a100eb7fffff","h3_res9":"892a100eb6bffff"},{"osm_id":5003541424,"name":"Susan Laundromat","amenity_type":"laundry","lat":40.7257737,"lng":-73.9418448,"h3_res7":"872a100d1ffffff","h3_res8":"882a100d11fffff","h3_res9":"892a100d103ffff"},{"osm_id":5003588922,"name":"My Favorite Cleaners & Laundry","amenity_type":"laundry","lat":40.7203308,"lng":-73.9405881,"h3_res7":"872a100d1ffffff","h3_res8":"882a100d13fffff","h3_res9":"892a100d13bffff"},{"osm_id":5003645421,"name":"Bean & Clean","amenity_type":"laundry","lat":40.7146908,"lng":-73.9386261,"h3_res7":"872a100d1ffffff","h3_res8":"882a100d13fffff","h3_res9":"892a100d127ffff"},{"osm_id":5010423221,"name":"Susan","amenity_type":"laundry","lat":40.7253063,"lng":-73.9458414,"h3_res7":"872a100d1ffffff","h3_res8":"882a100d11fffff","h3_res9":"892a100d10bffff"},{"osm_id":5054861725,"name":"Angela's","amenity_type":"laundry","lat":40.7329226,"lng":-73.954896,"h3_res7":"872a100d0ffffff","h3_res8":"882a100d03fffff","h3_res9":"892a100d027ffff"},{"osm_id":5055063621,"name":"Unknown","amenity_type":"laundry","lat":40.7396972,"lng":-73.9244109,"h3_res7":"872a100d5ffffff","h3_res8":"882a100d53fffff","h3_res9":"892a100d507ffff"},{"osm_id":5057358326,"name":"Sunshine Laundromat & Pinball","amenity_type":"laundry","lat":40.7292524,"lng":-73.9537238,"h3_res7":"872a100d1ffffff","h3_res8":"882a100d15fffff","h3_res9":"892a100d15bffff"},{"osm_id":5057358521,"name":"Creg's","amenity_type":"laundry","lat":40.7240375,"lng":-73.9508141,"h3_res7":"872a100d1ffffff","h3_res8":"882a100d15fffff","h3_res9":"892a100d147ffff"},{"osm_id":5061196924,"name":"Laney's Laundry","amenity_type":"laundry","lat":40.7094535,"lng":-73.8292664,"h3_res7":"872a100eaffffff","h3_res8":"882a100eabfffff","h3_res9":"892a100eabbffff"},{"osm_id":5067562321,"name":"Quick Coin One","amenity_type":"laundry","lat":40.7292996,"lng":-73.9842965,"h3_res7":"872a100d3ffffff","h3_res8":"882a100d35fffff","h3_res9":"892a100d35bffff"},{"osm_id":5082827552,"name":"Eleven Laundromat","amenity_type":"laundry","lat":40.7440079,"lng":-73.9068183,"h3_res7":"872a100c6ffffff","h3_res8":"882a100c65fffff","h3_res9":"892a100c647ffff"},{"osm_id":5082832235,"name":"Unknown","amenity_type":"laundry","lat":40.7456563,"lng":-73.9060333,"h3_res7":"872a100c6ffffff","h3_res8":"882a100c65fffff","h3_res9":"892a100c647ffff"},{"osm_id":5082834228,"name":"Amy Li's Laundromat","amenity_type":"laundry","lat":40.7443817,"lng":-73.9127606,"h3_res7":"872a100d5ffffff","h3_res8":"882a100c65fffff","h3_res9":"892a100d5b3ffff"},{"osm_id":5092416721,"name":"Unknown","amenity_type":"laundry","lat":40.7389271,"lng":-73.926736,"h3_res7":"872a100d5ffffff","h3_res8":"882a100d53fffff","h3_res9":"892a100d53bffff"},{"osm_id":5093186824,"name":"Unknown","amenity_type":"laundry","lat":40.7198664,"lng":-73.9574934,"h3_res7":"872a100d3ffffff","h3_res8":"882a100d3bfffff","h3_res9":"892a100d3a7ffff"},{"osm_id":5101980722,"name":"A.N.M Super Clean","amenity_type":"laundry","lat":40.6766881,"lng":-73.819672,"h3_res7":"872a103b6ffffff","h3_res8":"882a103b65fffff","h3_res9":"892a103b65bffff"},{"osm_id":5101988922,"name":"Unknown","amenity_type":"laundry","lat":40.6751832,"lng":-73.8123716,"h3_res7":"872a103b6ffffff","h3_res8":"882a103b65fffff","h3_res9":"892a103b657ffff"},{"osm_id":5102254683,"name":"Suds and Such","amenity_type":"laundry","lat":40.7259332,"lng":-73.8775374,"h3_res7":"872a100c0ffffff","h3_res8":"882a100c01fffff","h3_res9":"892a100c017ffff"},{"osm_id":5104086369,"name":"RMA Super Laundromat","amenity_type":"laundry","lat":40.7669004,"lng":-73.9127805,"h3_res7":"872a100f3ffffff","h3_res8":"882a100f3dfffff","h3_res9":"892a100f3c7ffff"},{"osm_id":5115098200,"name":"Susan Laundromat","amenity_type":"laundry","lat":40.7573344,"lng":-73.8666639,"h3_res7":"872a100e2ffffff","h3_res8":"882a100e27fffff","h3_res9":"892a100e26bffff"},{"osm_id":5123012213,"name":"Rainbow Laundromat","amenity_type":"laundry","lat":40.7432051,"lng":-73.865861,"h3_res7":"872a100c4ffffff","h3_res8":"882a100c41fffff","h3_res9":"892a100c407ffff"},{"osm_id":5129584202,"name":"The Laundry Room","amenity_type":"laundry","lat":40.7662828,"lng":-73.9150797,"h3_res7":"872a100f3ffffff","h3_res8":"882a100f31fffff","h3_res9":"892a100f31bffff"},{"osm_id":5134070615,"name":"Laundromat","amenity_type":"laundry","lat":40.7588692,"lng":-73.9349278,"h3_res7":"872a100d4ffffff","h3_res8":"882a100d4bfffff","h3_res9":"892a100d4abffff"},{"osm_id":5134162931,"name":"Village Wash Laundromat","amenity_type":"laundry","lat":40.7250184,"lng":-73.7446761,"h3_res7":"872a10051ffffff","h3_res8":"882a100517fffff","h3_res9":"892a100516bffff"},{"osm_id":5139540634,"name":"Fluff & Fold","amenity_type":"laundry","lat":40.7681098,"lng":-73.9243242,"h3_res7":"872a100f3ffffff","h3_res8":"882a100f35fffff","h3_res9":"892a100f353ffff"},{"osm_id":5142998906,"name":"Triborough Laundromat","amenity_type":"laundry","lat":40.7668266,"lng":-73.9168632,"h3_res7":"872a100f3ffffff","h3_res8":"882a100f3dfffff","h3_res9":"892a100f3cfffff"},{"osm_id":5142998937,"name":"Dexter Laundromat","amenity_type":"laundry","lat":40.7656245,"lng":-73.9183685,"h3_res7":"872a100f3ffffff","h3_res8":"882a100f35fffff","h3_res9":"892a100f357ffff"},{"osm_id":5147363232,"name":"Angelo's Laundromat","amenity_type":"laundry","lat":40.764151,"lng":-73.9223743,"h3_res7":"872a100f3ffffff","h3_res8":"882a100f35fffff","h3_res9":"892a100f343ffff"},{"osm_id":5147363303,"name":"Laundromat","amenity_type":"laundry","lat":40.7632188,"lng":-73.9214808,"h3_res7":"872a100f3ffffff","h3_res8":"882a100f35fffff","h3_res9":"892a100f347ffff"},{"osm_id":5147371433,"name":"Laundromat","amenity_type":"laundry","lat":40.7617256,"lng":-73.9107093,"h3_res7":"872a100f3ffffff","h3_res8":"882a100f31fffff","h3_res9":"892a100f317ffff"},{"osm_id":5155647155,"name":"Laundromat","amenity_type":"laundry","lat":40.6963717,"lng":-73.8136411,"h3_res7":"872a100ebffffff","h3_res8":"882a100eb9fffff","h3_res9":"892a100eb83ffff"},{"osm_id":5155824389,"name":"Clean Rite","amenity_type":"laundry","lat":40.6330952,"lng":-74.1365804,"h3_res7":"872a10620ffffff","h3_res8":"882a10620dfffff","h3_res9":"892a10620cfffff"},{"osm_id":5155896221,"name":"Clean Rite","amenity_type":"laundry","lat":40.6376367,"lng":-73.9530422,"h3_res7":"872a10762ffffff","h3_res8":"882a10762dfffff","h3_res9":"892a10762c7ffff"},{"osm_id":5156166751,"name":"XL Laundromat","amenity_type":"laundry","lat":40.7678305,"lng":-73.9237041,"h3_res7":"872a100f3ffffff","h3_res8":"882a100f35fffff","h3_res9":"892a100f353ffff"},{"osm_id":5156166753,"name":"New Astoria","amenity_type":"laundry","lat":40.7687043,"lng":-73.921403,"h3_res7":"872a100f3ffffff","h3_res8":"882a100f3dfffff","h3_res9":"892a100f353ffff"},{"osm_id":5161985498,"name":"Unknown","amenity_type":"laundry","lat":40.8472064,"lng":-73.8325667,"h3_res7":"872a1001cffffff","h3_res8":"882a1001cdfffff","h3_res9":"892a1001ccbffff"},{"osm_id":5163871869,"name":"Lavanderia Express XI","amenity_type":"laundry","lat":40.6988857,"lng":-73.9044131,"h3_res7":"872a100c3ffffff","h3_res8":"882a100c37fffff","h3_res9":"892a100c367ffff"},{"osm_id":5163879672,"name":"Lavanderia Express","amenity_type":"laundry","lat":40.6947123,"lng":-73.9109087,"h3_res7":"872a100ddffffff","h3_res8":"882a100dddfffff","h3_res9":"892a100ddc7ffff"},{"osm_id":5169552822,"name":"Nassay Laundry","amenity_type":"laundry","lat":40.7243193,"lng":-73.948537,"h3_res7":"872a100d1ffffff","h3_res8":"882a100d15fffff","h3_res9":"892a100d147ffff"},{"osm_id":5171953024,"name":"Madison Supreme Laundromat","amenity_type":"laundry","lat":40.712031,"lng":-73.9965395,"h3_res7":"872a1072dffffff","h3_res8":"882a1072c3fffff","h3_res9":"892a1072c27ffff"},{"osm_id":5172257680,"name":"Express Laundromat","amenity_type":"laundry","lat":40.807568,"lng":-73.9188158,"h3_res7":"872a100f6ffffff","h3_res8":"882a100f6dfffff","h3_res9":"892a100f6c3ffff"},{"osm_id":5172757163,"name":"Lucky Laundromat","amenity_type":"laundry","lat":40.8172194,"lng":-73.8854058,"h3_res7":"872a1001affffff","h3_res8":"882a100a9bfffff","h3_res9":"892a100a9b7ffff"},{"osm_id":5175564847,"name":"Laundry Center","amenity_type":"laundry","lat":40.8791716,"lng":-73.8658411,"h3_res7":"872a10010ffffff","h3_res8":"882a100105fffff","h3_res9":"892a1001053ffff"},{"osm_id":5175572734,"name":"Bronx Laundromat LTD","amenity_type":"laundry","lat":40.8658248,"lng":-73.8633834,"h3_res7":"872a10010ffffff","h3_res8":"882a100107fffff","h3_res9":"892a1001067ffff"},{"osm_id":5175576916,"name":"So Fresh & So Clean Laundromat","amenity_type":"laundry","lat":40.8464192,"lng":-73.8595176,"h3_res7":"872a1001effffff","h3_res8":"882a1001edfffff","h3_res9":"892a1001ec3ffff"},{"osm_id":5176819521,"name":"Alpine","amenity_type":"laundry","lat":40.7114827,"lng":-73.9996937,"h3_res7":"872a1072cffffff","h3_res8":"882a1072c3fffff","h3_res9":"892a1072c2fffff"},{"osm_id":5190573514,"name":"Chester Super Laundromat","amenity_type":"laundry","lat":40.9019774,"lng":-73.8470004,"h3_res7":"872a10014ffffff","h3_res8":"882a10014dfffff","h3_res9":"892a10014c3ffff"},{"osm_id":5191768761,"name":"Lucky L&W Laundromat","amenity_type":"laundry","lat":40.6748889,"lng":-73.976195,"h3_res7":"872a10774ffffff","h3_res8":"882a107749fffff","h3_res9":"892a1077483ffff"},{"osm_id":5197664116,"name":"All American Laundry","amenity_type":"laundry","lat":40.8510659,"lng":-73.8296953,"h3_res7":"872a10011ffffff","h3_res8":"882a10011bfffff","h3_res9":"892a10011a7ffff"},{"osm_id":5209147513,"name":"Laura's Laundromat","amenity_type":"laundry","lat":40.6188924,"lng":-73.9255747,"h3_res7":"872a10763ffffff","h3_res8":"882a107639fffff","h3_res9":"892a1076397ffff"},{"osm_id":5209157329,"name":"Depot Laundromat","amenity_type":"laundry","lat":40.6814679,"lng":-73.8810396,"h3_res7":"872a100ceffffff","h3_res8":"882a100ce3fffff","h3_res9":"892a100ce2bffff"},{"osm_id":5209292721,"name":"Laundromat","amenity_type":"laundry","lat":40.6813637,"lng":-73.8791875,"h3_res7":"872a100ceffffff","h3_res8":"882a100ce3fffff","h3_res9":"892a100ce23ffff"},{"osm_id":5209293939,"name":"Laundromat","amenity_type":"laundry","lat":40.681638,"lng":-73.8788279,"h3_res7":"872a100ceffffff","h3_res8":"882a100ce3fffff","h3_res9":"892a100ce23ffff"},{"osm_id":5213278671,"name":"Web Laundromat","amenity_type":"laundry","lat":40.7575582,"lng":-73.9162372,"h3_res7":"872a100f3ffffff","h3_res8":"882a100f37fffff","h3_res9":"892a100f377ffff"},{"osm_id":5215082713,"name":"Laundry Palace","amenity_type":"laundry","lat":40.6438952,"lng":-73.9484302,"h3_res7":"872a10766ffffff","h3_res8":"882a107667fffff","h3_res9":"892a107666fffff"},{"osm_id":5216103247,"name":"Laundromat","amenity_type":"laundry","lat":40.6668078,"lng":-73.8764359,"h3_res7":"872a100c8ffffff","h3_res8":"882a100c87fffff","h3_res9":"892a100c86bffff"},{"osm_id":5218863996,"name":"Unknown","amenity_type":"laundry","lat":40.5996087,"lng":-73.9896117,"h3_res7":"872a10740ffffff","h3_res8":"882a107405fffff","h3_res9":"892a1074053ffff"},{"osm_id":5220904079,"name":"Cyber Laundry","amenity_type":"laundry","lat":40.6799625,"lng":-73.9391915,"h3_res7":"872a100d8ffffff","h3_res8":"882a100d83fffff","h3_res9":"892a100d823ffff"},{"osm_id":5222906294,"name":"Laundromat","amenity_type":"laundry","lat":40.6353932,"lng":-73.9955378,"h3_res7":"872a10771ffffff","h3_res8":"882a107715fffff","h3_res9":"892a107715bffff"},{"osm_id":5227306334,"name":"Unknown","amenity_type":"laundry","lat":40.6407177,"lng":-73.9502406,"h3_res7":"872a10762ffffff","h3_res8":"882a10762dfffff","h3_res9":"892a10762d7ffff"},{"osm_id":5229546194,"name":"Boro Park Wash Center","amenity_type":"laundry","lat":40.6359868,"lng":-74.0009216,"h3_res7":"872a10773ffffff","h3_res8":"882a107739fffff","h3_res9":"892a1077397ffff"},{"osm_id":5234741221,"name":"D&Y Laundromat","amenity_type":"laundry","lat":40.6802767,"lng":-73.8210455,"h3_res7":"872a100ebffffff","h3_res8":"882a100eb3fffff","h3_res9":"892a100eb2fffff"},{"osm_id":5248100757,"name":"Toda Laundromat","amenity_type":"laundry","lat":40.7292143,"lng":-73.862245,"h3_res7":"872a100c5ffffff","h3_res8":"882a100c55fffff","h3_res9":"892a100c543ffff"},{"osm_id":5309501636,"name":"Laundromat","amenity_type":"laundry","lat":40.7951631,"lng":-73.9357996,"h3_res7":"872a1008dffffff","h3_res8":"882a1008dbfffff","h3_res9":"892a1008dafffff"},{"osm_id":5310253522,"name":"La Mode Organic Cleaners","amenity_type":"laundry","lat":40.7408229,"lng":-73.9789949,"h3_res7":"872a100d2ffffff","h3_res8":"882a100d2bfffff","h3_res9":"892a100d2bbffff"},{"osm_id":5311472614,"name":"Laundromat","amenity_type":"laundry","lat":40.7262668,"lng":-73.8706005,"h3_res7":"872a100c0ffffff","h3_res8":"882a100c0bfffff","h3_res9":"892a100c0b3ffff"},{"osm_id":5311472705,"name":"Crossbay Express Laundromat","amenity_type":"laundry","lat":40.6711438,"lng":-73.8432518,"h3_res7":"872a100cdffffff","h3_res8":"882a100cd5fffff","h3_res9":"892a100cd47ffff"},{"osm_id":5311473224,"name":"Lin High Speed Laundromat","amenity_type":"laundry","lat":40.7459077,"lng":-73.899225,"h3_res7":"872a100c6ffffff","h3_res8":"882a100c61fffff","h3_res9":"892a100c61bffff"},{"osm_id":5312847415,"name":"Laundromat","amenity_type":"laundry","lat":40.7470294,"lng":-73.9025939,"h3_res7":"872a100c6ffffff","h3_res8":"882a100c65fffff","h3_res9":"892a100c657ffff"},{"osm_id":5320691268,"name":"Unknown","amenity_type":"laundry","lat":40.6766378,"lng":-73.9804968,"h3_res7":"872a10774ffffff","h3_res8":"882a107749fffff","h3_res9":"892a107749bffff"},{"osm_id":5340097024,"name":"Hollywood Laundromat","amenity_type":"laundry","lat":40.7618762,"lng":-73.9186091,"h3_res7":"872a100f3ffffff","h3_res8":"882a100f31fffff","h3_res9":"892a100f30bffff"},{"osm_id":5349691782,"name":"Y & R Laundromat Ming Rong, Inc.","amenity_type":"laundry","lat":40.7021828,"lng":-73.9068748,"h3_res7":"872a100c3ffffff","h3_res8":"882a100c37fffff","h3_res9":"892a100c363ffff"},{"osm_id":5351641813,"name":"Ridgewood Bubbles","amenity_type":"laundry","lat":40.6984541,"lng":-73.9001262,"h3_res7":"872a100c3ffffff","h3_res8":"882a100c33fffff","h3_res9":"892a100c32bffff"},{"osm_id":5351827351,"name":"Sarah and Shelly's Laundromat","amenity_type":"laundry","lat":40.6961044,"lng":-73.8995139,"h3_res7":"872a100ddffffff","h3_res8":"882a100dd9fffff","h3_res9":"892a100dd93ffff"},{"osm_id":5364425492,"name":"Xin Long Laundromat","amenity_type":"laundry","lat":40.6978589,"lng":-73.9084472,"h3_res7":"872a100ddffffff","h3_res8":"882a100dddfffff","h3_res9":"892a100ddd7ffff"},{"osm_id":5368774890,"name":"Makkalelnc Laundromat","amenity_type":"laundry","lat":40.7029431,"lng":-73.9026047,"h3_res7":"872a100c3ffffff","h3_res8":"882a100c37fffff","h3_res9":"892a100c373ffff"},{"osm_id":5371472919,"name":"Fast Service Laundromat","amenity_type":"laundry","lat":40.7071022,"lng":-73.8967924,"h3_res7":"872a100c3ffffff","h3_res8":"882a100c31fffff","h3_res9":"892a100c303ffff"},{"osm_id":5373446082,"name":"Laundromat","amenity_type":"laundry","lat":40.7092746,"lng":-73.9071904,"h3_res7":"872a100c3ffffff","h3_res8":"882a100c35fffff","h3_res9":"892a100c343ffff"},{"osm_id":5397493550,"name":"HMY Laundry","amenity_type":"laundry","lat":40.6922823,"lng":-73.860288,"h3_res7":"872a100ccffffff","h3_res8":"882a100cc5fffff","h3_res9":"892a100cc43ffff"},{"osm_id":5397495139,"name":"Wash & Dry Round the Clock","amenity_type":"laundry","lat":40.6919862,"lng":-73.8638451,"h3_res7":"872a100ccffffff","h3_res8":"882a100cc5fffff","h3_res9":"892a100cc4bffff"},{"osm_id":5404220939,"name":"Winner Laundromat","amenity_type":"laundry","lat":40.7087122,"lng":-73.9018295,"h3_res7":"872a100c3ffffff","h3_res8":"882a100c35fffff","h3_res9":"892a100c357ffff"},{"osm_id":5406249602,"name":"Laundromat & Dry Cleaning","amenity_type":"laundry","lat":40.7516701,"lng":-73.9096146,"h3_res7":"872a100f3ffffff","h3_res8":"882a100f33fffff","h3_res9":"892a100f327ffff"},{"osm_id":5406258454,"name":"Wipe Out Laundromat","amenity_type":"laundry","lat":40.7689244,"lng":-73.9121608,"h3_res7":"872a100f3ffffff","h3_res8":"882a100f3dfffff","h3_res9":"892a100f3d7ffff"},{"osm_id":5417700399,"name":"Fresh Pond Laundromat","amenity_type":"laundry","lat":40.7081601,"lng":-73.8976177,"h3_res7":"872a100c3ffffff","h3_res8":"882a100c31fffff","h3_res9":"892a100c303ffff"},{"osm_id":5425887977,"name":"Laundromat","amenity_type":"laundry","lat":40.7571095,"lng":-73.8721215,"h3_res7":"872a100f1ffffff","h3_res8":"882a100f1bfffff","h3_res9":"892a100c4dbffff"},{"osm_id":5425888176,"name":"Laundromat","amenity_type":"laundry","lat":40.7555427,"lng":-73.8869707,"h3_res7":"872a100f1ffffff","h3_res8":"882a100f17fffff","h3_res9":"892a100f12bffff"},{"osm_id":5425895381,"name":"Laundromat","amenity_type":"laundry","lat":40.696754,"lng":-73.7918508,"h3_res7":"872a100e9ffffff","h3_res8":"882a100e9dfffff","h3_res9":"892a100e9c7ffff"},{"osm_id":5425897219,"name":"Unknown","amenity_type":"laundry","lat":40.6931962,"lng":-73.7889762,"h3_res7":"872a100e9ffffff","h3_res8":"882a100e91fffff","h3_res9":"892a100e913ffff"},{"osm_id":5425898278,"name":"Laundromat","amenity_type":"laundry","lat":40.696345,"lng":-73.7912674,"h3_res7":"872a100e9ffffff","h3_res8":"882a100e9dfffff","h3_res9":"892a100e9c7ffff"},{"osm_id":5425905990,"name":"Guy R Farmers Laundromat","amenity_type":"laundry","lat":40.6640659,"lng":-73.768381,"h3_res7":"872a103b5ffffff","h3_res8":"882a103b43fffff","h3_res9":"892a103b5cbffff"},{"osm_id":5444214899,"name":"Merrick Laundry","amenity_type":"laundry","lat":40.6747061,"lng":-73.7368692,"h3_res7":"872a1005bffffff","h3_res8":"882a1005bbfffff","h3_res9":"892a1005bbbffff"},{"osm_id":5452636857,"name":"Baxter Laundromat","amenity_type":"laundry","lat":40.7468147,"lng":-73.882907,"h3_res7":"872a100c6ffffff","h3_res8":"882a100c45fffff","h3_res9":"892a100c44bffff"},{"osm_id":5455256928,"name":"Unknown","amenity_type":"laundry","lat":40.7575435,"lng":-73.8647161,"h3_res7":"872a100e2ffffff","h3_res8":"882a100e27fffff","h3_res9":"892a100e26bffff"},{"osm_id":5455274187,"name":"55 Laundromat","amenity_type":"laundry","lat":40.7447789,"lng":-73.9094751,"h3_res7":"872a100c6ffffff","h3_res8":"882a100c65fffff","h3_res9":"892a100c64fffff"},{"osm_id":5475623846,"name":"Lavanderia Express III, Inc.","amenity_type":"laundry","lat":40.7056717,"lng":-73.9128415,"h3_res7":"872a100dcffffff","h3_res8":"882a100dcbfffff","h3_res9":"892a100dcb3ffff"},{"osm_id":5482780022,"name":"Celsious","amenity_type":"laundry","lat":40.7189428,"lng":-73.9592943,"h3_res7":"872a100d3ffffff","h3_res8":"882a100d3bfffff","h3_res9":"892a100d3a7ffff"},{"osm_id":5510187115,"name":"Laundry Boy","amenity_type":"laundry","lat":40.7834933,"lng":-73.9478708,"h3_res7":"872a10089ffffff","h3_res8":"882a100899fffff","h3_res9":"892a1008987ffff"},{"osm_id":5515269523,"name":"Unknown","amenity_type":"laundry","lat":40.6720783,"lng":-73.7749451,"h3_res7":"872a103b4ffffff","h3_res8":"882a103b41fffff","h3_res9":"892a103b403ffff"},{"osm_id":5538740422,"name":"Rosedale Laundry","amenity_type":"laundry","lat":40.674316,"lng":-73.7281054,"h3_res7":"872a10059ffffff","h3_res8":"882a100595fffff","h3_res9":"892a100594fffff"},{"osm_id":5542722383,"name":"Unknown","amenity_type":"laundry","lat":40.6138561,"lng":-74.0661229,"h3_res7":"872a10750ffffff","h3_res8":"882a107505fffff","h3_res9":"892a1075043ffff"},{"osm_id":5546395585,"name":"Lucky laundromat","amenity_type":"laundry","lat":40.8260197,"lng":-73.8769439,"h3_res7":"872a1001affffff","h3_res8":"882a1001adfffff","h3_res9":"892a1001acbffff"},{"osm_id":5546399015,"name":"King Size","amenity_type":"laundry","lat":40.8263128,"lng":-73.8755035,"h3_res7":"872a1001affffff","h3_res8":"882a1001adfffff","h3_res9":"892a1001acbffff"},{"osm_id":5546496539,"name":"Dry Cleaner Laundromat","amenity_type":"laundry","lat":40.7447278,"lng":-73.9113442,"h3_res7":"872a100c6ffffff","h3_res8":"882a100c65fffff","h3_res9":"892a100c64fffff"},{"osm_id":5548932725,"name":"Unknown","amenity_type":"laundry","lat":40.8312162,"lng":-73.867296,"h3_res7":"872a1001effffff","h3_res8":"882a1001e7fffff","h3_res9":"892a1001e6fffff"},{"osm_id":5548940417,"name":"Super Laundry Land","amenity_type":"laundry","lat":40.8322777,"lng":-73.8626405,"h3_res7":"872a1001effffff","h3_res8":"882a1001e7fffff","h3_res9":"892a1001e63ffff"},{"osm_id":5552547733,"name":"Laundromat","amenity_type":"laundry","lat":40.8282484,"lng":-73.8611229,"h3_res7":"872a1001effffff","h3_res8":"882a1001a9fffff","h3_res9":"892a1001a93ffff"},{"osm_id":5552550458,"name":"Gregory's Laundromat","amenity_type":"laundry","lat":40.8305668,"lng":-73.8540459,"h3_res7":"872a1001effffff","h3_res8":"882a1001e3fffff","h3_res9":"892a1001e23ffff"},{"osm_id":5552776846,"name":"Dream Clean Laundromat","amenity_type":"laundry","lat":40.6843492,"lng":-73.9839767,"h3_res7":"872a100daffffff","h3_res8":"882a10729bfffff","h3_res9":"892a10729b7ffff"},{"osm_id":5556904804,"name":"Mobil Laundromat","amenity_type":"laundry","lat":40.7060246,"lng":-73.9073209,"h3_res7":"872a100c3ffffff","h3_res8":"882a100c35fffff","h3_res9":"892a100c37bffff"},{"osm_id":5558007856,"name":"Smith Laundromat","amenity_type":"laundry","lat":40.6812467,"lng":-73.9940367,"h3_res7":"872a10729ffffff","h3_res8":"882a10729bfffff","h3_res9":"892a1072933ffff"},{"osm_id":5562952072,"name":"Rob's Stop 'n' Wash","amenity_type":"laundry","lat":40.681399,"lng":-73.9772544,"h3_res7":"872a100daffffff","h3_res8":"882a100da7fffff","h3_res9":"892a100da63ffff"},{"osm_id":5571365962,"name":"Kevin Laundromat","amenity_type":"laundry","lat":40.6945254,"lng":-73.9067719,"h3_res7":"872a100ddffffff","h3_res8":"882a100dd9fffff","h3_res9":"892a100dd8bffff"},{"osm_id":5579670164,"name":"Laundry Center","amenity_type":"laundry","lat":40.702835,"lng":-73.8951213,"h3_res7":"872a100c3ffffff","h3_res8":"882a100c33fffff","h3_res9":"892a100c33bffff"},{"osm_id":5580325146,"name":"Friendly Neighborhood Laundry Center","amenity_type":"laundry","lat":40.8567703,"lng":-73.8901591,"h3_res7":"872a100acffffff","h3_res8":"882a100acbfffff","h3_res9":"892a100acb3ffff"},{"osm_id":5593246272,"name":"J & C Group Inc","amenity_type":"laundry","lat":40.6172692,"lng":-73.9922802,"h3_res7":"872a10746ffffff","h3_res8":"882a107469fffff","h3_res9":"892a107468bffff"},{"osm_id":5596262265,"name":"Best Brite Laundromat","amenity_type":"laundry","lat":40.7015994,"lng":-73.9376633,"h3_res7":"872a100dcffffff","h3_res8":"882a100dc7fffff","h3_res9":"892a100dc6bffff"},{"osm_id":5604256955,"name":"Laundromat","amenity_type":"laundry","lat":40.7822475,"lng":-73.9149213,"h3_res7":"872a100f2ffffff","h3_res8":"882a100f05fffff","h3_res9":"892a100f04bffff"},{"osm_id":5609580409,"name":"Chang Qing Teng Laundromat","amenity_type":"laundry","lat":40.7877602,"lng":-73.9442879,"h3_res7":"872a1008dffffff","h3_res8":"882a1008d3fffff","h3_res9":"892a1008d2fffff"},{"osm_id":5612355570,"name":"Shaler Avenue Laundry Center","amenity_type":"laundry","lat":40.703412,"lng":-73.8922787,"h3_res7":"872a100c3ffffff","h3_res8":"882a100c33fffff","h3_res9":"892a100c333ffff"},{"osm_id":5612366764,"name":"Grand Dry Cleaners Inc","amenity_type":"laundry","lat":40.7021128,"lng":-73.8924605,"h3_res7":"872a100c3ffffff","h3_res8":"882a100c33fffff","h3_res9":"892a100c333ffff"},{"osm_id":5612367218,"name":"Paradise Laundromat","amenity_type":"laundry","lat":40.7022615,"lng":-73.8903913,"h3_res7":"872a100c3ffffff","h3_res8":"882a100c33fffff","h3_res9":"892a100c333ffff"},{"osm_id":5627218008,"name":"Heaven Scent Laundry","amenity_type":"laundry","lat":40.7045296,"lng":-73.9198741,"h3_res7":"872a100dcffffff","h3_res8":"882a100dcbfffff","h3_res9":"892a100dcabffff"},{"osm_id":5627689560,"name":"Wishwash","amenity_type":"laundry","lat":40.6729733,"lng":-73.9829303,"h3_res7":"872a10774ffffff","h3_res8":"882a10774dfffff","h3_res9":"892a10774c7ffff"},{"osm_id":5629134331,"name":"Wan Shuen","amenity_type":"laundry","lat":40.6871216,"lng":-73.9175636,"h3_res7":"872a100ddffffff","h3_res8":"882a100dd7fffff","h3_res9":"892a100dd73ffff"},{"osm_id":5640353613,"name":"R & R Laundromat","amenity_type":"laundry","lat":40.7038416,"lng":-73.9127522,"h3_res7":"872a100dcffffff","h3_res8":"882a100dcbfffff","h3_res9":"892a100dcb7ffff"},{"osm_id":5642870416,"name":"Unknown","amenity_type":"laundry","lat":40.7205518,"lng":-73.904564,"h3_res7":"872a100c2ffffff","h3_res8":"882a100c2bfffff","h3_res9":"892a100c2afffff"},{"osm_id":5658755826,"name":"Megawash","amenity_type":"laundry","lat":40.7454801,"lng":-73.8558269,"h3_res7":"872a100c4ffffff","h3_res8":"882a100c4bfffff","h3_res9":"892a100c4b3ffff"},{"osm_id":5665185456,"name":"Baisley Laundry","amenity_type":"laundry","lat":40.6841772,"lng":-73.7693632,"h3_res7":"872a1005affffff","h3_res8":"882a1005a7fffff","h3_res9":"892a1005a67ffff"},{"osm_id":5676727921,"name":"Yellowstone Wash","amenity_type":"laundry","lat":40.7170847,"lng":-73.8570234,"h3_res7":"872a100c5ffffff","h3_res8":"882a100c19fffff","h3_res9":"892a100c193ffff"},{"osm_id":5678224779,"name":"Unknown","amenity_type":"laundry","lat":40.7033703,"lng":-73.9033473,"h3_res7":"872a100c3ffffff","h3_res8":"882a100c37fffff","h3_res9":"892a100c373ffff"},{"osm_id":5699766396,"name":"Qu Sunrisee Laundromat","amenity_type":"laundry","lat":40.7026636,"lng":-73.9009255,"h3_res7":"872a100c3ffffff","h3_res8":"882a100c37fffff","h3_res9":"892a100c377ffff"},{"osm_id":5700532148,"name":"Super Laundromat","amenity_type":"laundry","lat":40.6797618,"lng":-73.9950387,"h3_res7":"872a10729ffffff","h3_res8":"882a107293fffff","h3_res9":"892a1072933ffff"},{"osm_id":5708416234,"name":"Hillside Laundromat","amenity_type":"laundry","lat":40.7056818,"lng":-73.8090835,"h3_res7":"872a100e8ffffff","h3_res8":"882a100e81fffff","h3_res9":"892a100e80fffff"},{"osm_id":5712453221,"name":"Park Slope Laundromat & Dry Cleaners","amenity_type":"laundry","lat":40.6800379,"lng":-73.9743139,"h3_res7":"872a100daffffff","h3_res8":"882a100da7fffff","h3_res9":"892a100da77ffff"},{"osm_id":5714335363,"name":"New Vanderbilt Laundromat","amenity_type":"laundry","lat":40.6773849,"lng":-73.9691735,"h3_res7":"872a100daffffff","h3_res8":"882a100da3fffff","h3_res9":"892a100da2fffff"},{"osm_id":5715348581,"name":"Bushwick Wash Club","amenity_type":"laundry","lat":40.6877335,"lng":-73.9186038,"h3_res7":"872a100ddffffff","h3_res8":"882a100dd5fffff","h3_res9":"892a100dd47ffff"},{"osm_id":5717511584,"name":"Wash Brite 2","amenity_type":"laundry","lat":40.8517757,"lng":-73.8300122,"h3_res7":"872a10011ffffff","h3_res8":"882a10011bfffff","h3_res9":"892a10011a7ffff"},{"osm_id":5721469501,"name":"DCH Laundromat","amenity_type":"laundry","lat":40.7394908,"lng":-73.9197505,"h3_res7":"872a100d5ffffff","h3_res8":"882a100d5bfffff","h3_res9":"892a100d5afffff"},{"osm_id":5721476026,"name":"Unknown","amenity_type":"laundry","lat":40.7441649,"lng":-73.9231026,"h3_res7":"872a100d5ffffff","h3_res8":"882a100d51fffff","h3_res9":"892a100d517ffff"},{"osm_id":5728804926,"name":"Unknown","amenity_type":"laundry","lat":40.6480562,"lng":-73.9998767,"h3_res7":"872a10770ffffff","h3_res8":"882a107701fffff","h3_res9":"892a1077003ffff"},{"osm_id":5728822229,"name":"Optimum Wash Laundromat","amenity_type":"laundry","lat":40.6451507,"lng":-73.9941656,"h3_res7":"872a10770ffffff","h3_res8":"882a107703fffff","h3_res9":"892a1077033ffff"},{"osm_id":5731405478,"name":"Clean Choice","amenity_type":"laundry","lat":40.6672102,"lng":-73.9881495,"h3_res7":"872a10774ffffff","h3_res8":"882a107741fffff","h3_res9":"892a107740bffff"},{"osm_id":5735340553,"name":"Super Laundry","amenity_type":"laundry","lat":40.6584467,"lng":-73.7536669,"h3_res7":"872a103b5ffffff","h3_res8":"882a103b59fffff","h3_res9":"892a103b58fffff"},{"osm_id":5742155219,"name":"Sac-o-Suds","amenity_type":"laundry","lat":40.6429341,"lng":-73.9876286,"h3_res7":"872a10770ffffff","h3_res8":"882a10770bfffff","h3_res9":"892a10771dbffff"},{"osm_id":5742156721,"name":"37th Street Laundromat","amenity_type":"laundry","lat":40.6439265,"lng":-73.9885299,"h3_res7":"872a10770ffffff","h3_res8":"882a10770bfffff","h3_res9":"892a10770afffff"},{"osm_id":5746186726,"name":"Unknown","amenity_type":"laundry","lat":40.6964741,"lng":-73.8045718,"h3_res7":"872a100e9ffffff","h3_res8":"882a100e95fffff","h3_res9":"892a100e95bffff"},{"osm_id":5747374468,"name":"Unknown","amenity_type":"laundry","lat":40.676322,"lng":-73.9220238,"h3_res7":"872a100d9ffffff","h3_res8":"882a100d9dfffff","h3_res9":"892a100d9d7ffff"},{"osm_id":5747521121,"name":"Irving Laundromat","amenity_type":"laundry","lat":40.6956875,"lng":-73.9087844,"h3_res7":"872a100ddffffff","h3_res8":"882a100dddfffff","h3_res9":"892a100ddd7ffff"},{"osm_id":5747704991,"name":"Washington Laundromat","amenity_type":"laundry","lat":40.6727593,"lng":-73.9626213,"h3_res7":"872a100dbffffff","h3_res8":"882a100db5fffff","h3_res9":"892a100db53ffff"},{"osm_id":5751929779,"name":"Chico's Laundromat","amenity_type":"laundry","lat":40.7035142,"lng":-73.9314172,"h3_res7":"872a100dcffffff","h3_res8":"882a100dc7fffff","h3_res9":"892a100dc73ffff"},{"osm_id":5758401218,"name":"Laundromat","amenity_type":"laundry","lat":40.7527095,"lng":-73.8660841,"h3_res7":"872a100c4ffffff","h3_res8":"882a100c4dfffff","h3_res9":"892a100c4d7ffff"},{"osm_id":5758404691,"name":"Corona 88 Laundromat","amenity_type":"laundry","lat":40.7534159,"lng":-73.8642896,"h3_res7":"872a100c4ffffff","h3_res8":"882a100c4dfffff","h3_res9":"892a100c4d7ffff"},{"osm_id":5758406152,"name":"Isabella's Laundromat","amenity_type":"laundry","lat":40.7525779,"lng":-73.8641922,"h3_res7":"872a100c4ffffff","h3_res8":"882a100c49fffff","h3_res9":"892a100c4d7ffff"},{"osm_id":5758421913,"name":"Unknown","amenity_type":"laundry","lat":40.7518869,"lng":-73.8636101,"h3_res7":"872a100c4ffffff","h3_res8":"882a100c49fffff","h3_res9":"892a100c48bffff"},{"osm_id":5758430856,"name":"DNC Laundromat","amenity_type":"laundry","lat":40.7553033,"lng":-73.8606977,"h3_res7":"872a100e2ffffff","h3_res8":"882a100e27fffff","h3_res9":"892a100e267ffff"},{"osm_id":5758431570,"name":"108th Street Laundromat","amenity_type":"laundry","lat":40.7538247,"lng":-73.8601106,"h3_res7":"872a100c4ffffff","h3_res8":"882a100c49fffff","h3_res9":"892a100c49bffff"},{"osm_id":5759360697,"name":"Twins Laundromat & Dry Cleaners","amenity_type":"laundry","lat":40.706537,"lng":-73.910845,"h3_res7":"872a100c3ffffff","h3_res8":"882a100dcbfffff","h3_res9":"892a100c34fffff"},{"osm_id":5763505027,"name":"Unknown","amenity_type":"laundry","lat":40.7608335,"lng":-73.9087953,"h3_res7":"872a100f3ffffff","h3_res8":"882a100f31fffff","h3_res9":"892a100f3abffff"},{"osm_id":5763522125,"name":"Young's Laundromat","amenity_type":"laundry","lat":40.7633487,"lng":-73.9141381,"h3_res7":"872a100f3ffffff","h3_res8":"882a100f31fffff","h3_res9":"892a100f303ffff"},{"osm_id":5764857017,"name":"Big Russ Laundromat","amenity_type":"laundry","lat":40.7575652,"lng":-73.8634929,"h3_res7":"872a100e2ffffff","h3_res8":"882a100e27fffff","h3_res9":"892a100e263ffff"},{"osm_id":5764857294,"name":"JMB Laundry","amenity_type":"laundry","lat":40.7574732,"lng":-73.8657832,"h3_res7":"872a100e2ffffff","h3_res8":"882a100e27fffff","h3_res9":"892a100e26bffff"},{"osm_id":5771336672,"name":"Yung Laundromat","amenity_type":"laundry","lat":40.670764,"lng":-73.9852026,"h3_res7":"872a10774ffffff","h3_res8":"882a107741fffff","h3_res9":"892a107741bffff"},{"osm_id":5794767118,"name":"Farmers Laundromat","amenity_type":"laundry","lat":40.6739179,"lng":-73.7636176,"h3_res7":"872a103b4ffffff","h3_res8":"882a103b4bfffff","h3_res9":"892a103b4b3ffff"},{"osm_id":5801498999,"name":"Quan Shen Laundromat","amenity_type":"laundry","lat":40.7833117,"lng":-73.8441539,"h3_res7":"872a100e6ffffff","h3_res8":"882a100e61fffff","h3_res9":"892a100e60bffff"},{"osm_id":5801753784,"name":"Laundromat","amenity_type":"laundry","lat":40.6822496,"lng":-73.9090854,"h3_res7":"872a100ddffffff","h3_res8":"882a100dd3fffff","h3_res9":"892a100dd3bffff"},{"osm_id":5804863157,"name":"Unknown","amenity_type":"laundry","lat":40.7992833,"lng":-73.9388165,"h3_res7":"872a1008dffffff","h3_res8":"882a1008d1fffff","h3_res9":"892a1008d17ffff"},{"osm_id":5806988481,"name":"Super Laundry","amenity_type":"laundry","lat":40.6667251,"lng":-73.7571069,"h3_res7":"872a1005bffffff","h3_res8":"882a1005b7fffff","h3_res9":"892a1005b6fffff"},{"osm_id":5816274212,"name":"Laundry & Latte","amenity_type":"laundry","lat":40.6935342,"lng":-73.9985211,"h3_res7":"872a10729ffffff","h3_res8":"882a10729dfffff","h3_res9":"892a10729d7ffff"},{"osm_id":5825993920,"name":"Ava Laundromat","amenity_type":"laundry","lat":40.7108337,"lng":-73.7922026,"h3_res7":"872a100e8ffffff","h3_res8":"882a100ed5fffff","h3_res9":"892a100e8b3ffff"},{"osm_id":5837225124,"name":"New 185 Laundromat","amenity_type":"laundry","lat":40.6799459,"lng":-73.9682552,"h3_res7":"872a100daffffff","h3_res8":"882a100da3fffff","h3_res9":"892a100da23ffff"},{"osm_id":5842501719,"name":"Crazy Bubbles","amenity_type":"laundry","lat":40.662477,"lng":-73.9962554,"h3_res7":"872a10774ffffff","h3_res8":"882a107747fffff","h3_res9":"892a107746bffff"},{"osm_id":5853969353,"name":"Lucky 88 Laundromat","amenity_type":"laundry","lat":40.613556,"lng":-73.9999049,"h3_res7":"872a10746ffffff","h3_res8":"882a107461fffff","h3_res9":"892a107461bffff"},{"osm_id":5859756990,"name":"Neighborhood Laundromat","amenity_type":"laundry","lat":40.672506,"lng":-73.759843,"h3_res7":"872a1005bffffff","h3_res8":"882a103b4bfffff","h3_res9":"892a103b4b7ffff"},{"osm_id":5860049704,"name":"Megawash Laundry","amenity_type":"laundry","lat":40.6812759,"lng":-73.76438,"h3_res7":"872a103b4ffffff","h3_res8":"882a103b49fffff","h3_res9":"892a103b493ffff"},{"osm_id":5873943238,"name":"Wash Laundromat","amenity_type":"laundry","lat":40.6636639,"lng":-73.9840768,"h3_res7":"872a10774ffffff","h3_res8":"882a107743fffff","h3_res9":"892a107743bffff"},{"osm_id":5891686978,"name":"Around the Corner Laundromat","amenity_type":"laundry","lat":40.7774726,"lng":-73.9170384,"h3_res7":"872a100f2ffffff","h3_res8":"882a100f2bfffff","h3_res9":"892a100f2a3ffff"},{"osm_id":5906792785,"name":"Unknown","amenity_type":"laundry","lat":40.7515679,"lng":-73.9398787,"h3_res7":"872a100d4ffffff","h3_res8":"882a100d43fffff","h3_res9":"892a100d427ffff"},{"osm_id":5906811386,"name":"Kwik Laundromat & Dry Cleaner","amenity_type":"laundry","lat":40.7639522,"lng":-73.9333229,"h3_res7":"872a100d4ffffff","h3_res8":"882a100d49fffff","h3_res9":"892a100d487ffff"},{"osm_id":5908481637,"name":"Apple Laundry","amenity_type":"laundry","lat":40.6642798,"lng":-73.9835596,"h3_res7":"872a10774ffffff","h3_res8":"882a107741fffff","h3_res9":"892a1077407ffff"},{"osm_id":5910319478,"name":"7th Ave. Laundromat Dry Cleaners","amenity_type":"laundry","lat":40.6616457,"lng":-73.9857591,"h3_res7":"872a10774ffffff","h3_res8":"882a107743fffff","h3_res9":"892a107743bffff"},{"osm_id":5931761585,"name":"Atlantis Super Wash","amenity_type":"laundry","lat":40.6938649,"lng":-73.9556709,"h3_res7":"872a100deffffff","h3_res8":"882a100de3fffff","h3_res9":"892a100de2fffff"},{"osm_id":5967865591,"name":"Smith’s Laundromat","amenity_type":"laundry","lat":40.6870773,"lng":-73.9900693,"h3_res7":"872a10729ffffff","h3_res8":"882a10729bfffff","h3_res9":"892a10729bbffff"},{"osm_id":5967865592,"name":"K Laundry Room","amenity_type":"laundry","lat":40.6821221,"lng":-73.9937235,"h3_res7":"872a10729ffffff","h3_res8":"882a10729bfffff","h3_res9":"892a10729abffff"},{"osm_id":5978510499,"name":"73 Laundromat llc","amenity_type":"laundry","lat":40.7679931,"lng":-73.9546283,"h3_res7":"872a100d4ffffff","h3_res8":"882a100d45fffff","h3_res9":"892a1008927ffff"},{"osm_id":5978510501,"name":"Unknown","amenity_type":"laundry","lat":40.7721143,"lng":-73.9579282,"h3_res7":"872a10089ffffff","h3_res8":"882a100893fffff","h3_res9":"892a1008923ffff"},{"osm_id":5978510507,"name":"Mat III Laundromat","amenity_type":"laundry","lat":40.7802323,"lng":-73.9502706,"h3_res7":"872a10089ffffff","h3_res8":"882a10089bfffff","h3_res9":"892a10089bbffff"},{"osm_id":5978556692,"name":"D. D. Laundromat","amenity_type":"laundry","lat":40.7688407,"lng":-73.9566395,"h3_res7":"872a10089ffffff","h3_res8":"882a100893fffff","h3_res9":"892a100892fffff"},{"osm_id":5978556719,"name":"Unknown","amenity_type":"laundry","lat":40.7252527,"lng":-73.951883,"h3_res7":"872a100d1ffffff","h3_res8":"882a100d15fffff","h3_res9":"892a100d147ffff"},{"osm_id":5978556756,"name":"Unknown","amenity_type":"laundry","lat":40.7162887,"lng":-73.957091,"h3_res7":"872a100deffffff","h3_res8":"882a100dedfffff","h3_res9":"892a100ded3ffff"},{"osm_id":5978556761,"name":"Metro Community Laundromat","amenity_type":"laundry","lat":40.7141983,"lng":-73.9501237,"h3_res7":"872a100deffffff","h3_res8":"882a100de9fffff","h3_res9":"892a100de9bffff"},{"osm_id":5978557985,"name":"Bo-Bo","amenity_type":"laundry","lat":40.7681788,"lng":-73.9550283,"h3_res7":"872a100d4ffffff","h3_res8":"882a100893fffff","h3_res9":"892a1008927ffff"},{"osm_id":5978557986,"name":"77 Laundromat","amenity_type":"laundry","lat":40.7712629,"lng":-73.9536973,"h3_res7":"872a10089ffffff","h3_res8":"882a100893fffff","h3_res9":"892a1008937ffff"},{"osm_id":5978557987,"name":"Todd Layne Cleaners","amenity_type":"laundry","lat":40.7722391,"lng":-73.9568554,"h3_res7":"872a10089ffffff","h3_res8":"882a100893fffff","h3_res9":"892a1008923ffff"},{"osm_id":5978558016,"name":"Samoobslugowa","amenity_type":"laundry","lat":40.7269473,"lng":-73.9467689,"h3_res7":"872a100d1ffffff","h3_res8":"882a100d11fffff","h3_res9":"892a100d157ffff"},{"osm_id":5978558020,"name":"York Laundrette","amenity_type":"laundry","lat":40.773372,"lng":-73.9487621,"h3_res7":"872a10089ffffff","h3_res8":"882a10089bfffff","h3_res9":"892a100d4dbffff"},{"osm_id":5978558021,"name":"Super Wash 85","amenity_type":"laundry","lat":40.7755114,"lng":-73.9505916,"h3_res7":"872a10089ffffff","h3_res8":"882a10089bfffff","h3_res9":"892a10089afffff"},{"osm_id":5978745708,"name":"Unknown","amenity_type":"laundry","lat":40.7920719,"lng":-73.9395677,"h3_res7":"872a1008dffffff","h3_res8":"882a1008d3fffff","h3_res9":"892a1008d33ffff"},{"osm_id":5978745712,"name":"Suds Ya Dud's II Laundromat","amenity_type":"laundry","lat":40.6742719,"lng":-73.8194892,"h3_res7":"872a103b6ffffff","h3_res8":"882a103b65fffff","h3_res9":"892a103b64bffff"},{"osm_id":5978745718,"name":"Good Luck Laundromat & Cleaners","amenity_type":"laundry","lat":40.7100609,"lng":-73.8994018,"h3_res7":"872a100c3ffffff","h3_res8":"882a100c31fffff","h3_res9":"892a100c31bffff"},{"osm_id":5978792106,"name":"Prospect Laundromat","amenity_type":"laundry","lat":40.655041,"lng":-73.9735815,"h3_res7":"872a10775ffffff","h3_res8":"882a10775dfffff","h3_res9":"892a10775cfffff"},{"osm_id":5978792111,"name":"Unknown","amenity_type":"laundry","lat":40.7958677,"lng":-73.9480538,"h3_res7":"872a1008dffffff","h3_res8":"882a1008d1fffff","h3_res9":"892a1008d0fffff"},{"osm_id":5978792488,"name":"Sparkles Laundromat","amenity_type":"laundry","lat":40.7898526,"lng":-73.9478548,"h3_res7":"872a1008dffffff","h3_res8":"882a1008d3fffff","h3_res9":"892a1008d2bffff"},{"osm_id":5978792489,"name":"Unknown","amenity_type":"laundry","lat":40.7911001,"lng":-73.9454128,"h3_res7":"872a1008dffffff","h3_res8":"882a1008d3fffff","h3_res9":"892a1008d2bffff"},{"osm_id":5978792492,"name":"Unknown","amenity_type":"laundry","lat":40.7939168,"lng":-73.9448643,"h3_res7":"872a1008dffffff","h3_res8":"882a1008d3fffff","h3_res9":"892a1008d3bffff"},{"osm_id":5978792496,"name":"Alice DFH Laundromat","amenity_type":"laundry","lat":40.7933515,"lng":-73.9406899,"h3_res7":"872a1008dffffff","h3_res8":"882a1008d3fffff","h3_res9":"892a1008d33ffff"},{"osm_id":5978837399,"name":"Unknown","amenity_type":"laundry","lat":40.7160059,"lng":-73.9923443,"h3_res7":"872a1072cffffff","h3_res8":"882a1072ddfffff","h3_res9":"892a1072ddbffff"},{"osm_id":5978837402,"name":"Unknown","amenity_type":"laundry","lat":40.6793293,"lng":-73.8210062,"h3_res7":"872a100ebffffff","h3_res8":"882a100eb3fffff","h3_res9":"892a100eb2fffff"},{"osm_id":5978868285,"name":"Manhattan’s Best Laundromat","amenity_type":"laundry","lat":40.7874536,"lng":-73.9529145,"h3_res7":"872a10089ffffff","h3_res8":"882a100899fffff","h3_res9":"892a100899bffff"},{"osm_id":5978868287,"name":"Unknown","amenity_type":"laundry","lat":40.8915397,"lng":-73.8976215,"h3_res7":"872a100a5ffffff","h3_res8":"882a100a5bfffff","h3_res9":"892a100a517ffff"},{"osm_id":5984018681,"name":"5th Ave. Laundry Center","amenity_type":"laundry","lat":40.6652317,"lng":-73.989394,"h3_res7":"872a10774ffffff","h3_res8":"882a107747fffff","h3_res9":"892a1077473ffff"},{"osm_id":5990970506,"name":"Bright Laundromat","amenity_type":"laundry","lat":40.7304377,"lng":-73.8239193,"h3_res7":"872a100eeffffff","h3_res8":"882a100ee1fffff","h3_res9":"892a100ee1bffff"},{"osm_id":6020023060,"name":"Top Clean 2","amenity_type":"laundry","lat":40.6839876,"lng":-73.7826663,"h3_res7":"872a100e9ffffff","h3_res8":"882a100e93fffff","h3_res9":"892a100e937ffff"},{"osm_id":6088775968,"name":"Bubbleworks","amenity_type":"laundry","lat":40.676443,"lng":-73.9636878,"h3_res7":"872a100dbffffff","h3_res8":"882a100da3fffff","h3_res9":"892a100da27ffff"},{"osm_id":6131102183,"name":"Laundry Stop on Cooper","amenity_type":"laundry","lat":40.6910382,"lng":-73.9037744,"h3_res7":"872a100ddffffff","h3_res8":"882a100dd9fffff","h3_res9":"892a100dd8fffff"},{"osm_id":6148322225,"name":"Laundromat","amenity_type":"laundry","lat":40.7272327,"lng":-73.7488103,"h3_res7":"872a10053ffffff","h3_res8":"882a10053bfffff","h3_res9":"892a10053b7ffff"},{"osm_id":6150664698,"name":"YS Hillside Laundromat Inc","amenity_type":"laundry","lat":40.7183581,"lng":-73.7649107,"h3_res7":"872a10053ffffff","h3_res8":"882a100ed9fffff","h3_res9":"892a100ed93ffff"},{"osm_id":6154645218,"name":"Clean Rite Center","amenity_type":"laundry","lat":40.7021087,"lng":-73.7904317,"h3_res7":"872a100e9ffffff","h3_res8":"882a100e9dfffff","h3_res9":"892a100e9d3ffff"},{"osm_id":6169678322,"name":"Laundry Club","amenity_type":"laundry","lat":40.7474499,"lng":-74.0008624,"h3_res7":"872a100d2ffffff","h3_res8":"882a100d25fffff","h3_res9":"892a100d25bffff"},{"osm_id":6217630352,"name":"Merrick Laundry","amenity_type":"laundry","lat":40.6965604,"lng":-73.7837445,"h3_res7":"872a100e9ffffff","h3_res8":"882a100e99fffff","h3_res9":"892a100e983ffff"},{"osm_id":6227534935,"name":"Clean & Bright Staten Island Center","amenity_type":"laundry","lat":40.6230319,"lng":-74.0831709,"h3_res7":"872a10756ffffff","h3_res8":"882a107567fffff","h3_res9":"892a1075663ffff"},{"osm_id":6230390819,"name":"Unknown","amenity_type":"laundry","lat":40.6746161,"lng":-73.9168096,"h3_res7":"872a100d9ffffff","h3_res8":"882a100d99fffff","h3_res9":"892a100d983ffff"},{"osm_id":6230660105,"name":"Gentle Wash Laundromat","amenity_type":"laundry","lat":40.725681,"lng":-73.9839877,"h3_res7":"872a100d3ffffff","h3_res8":"882a100d35fffff","h3_res9":"892a100d343ffff"},{"osm_id":6236928050,"name":"Liox Cleaners & Laundry","amenity_type":"laundry","lat":40.7198802,"lng":-73.9904413,"h3_res7":"872a1072cffffff","h3_res8":"882a1072cbfffff","h3_res9":"892a1072ca3ffff"},{"osm_id":6236943850,"name":"Tian Tian Laundromat","amenity_type":"laundry","lat":40.7203299,"lng":-73.9901284,"h3_res7":"872a1072cffffff","h3_res8":"882a1072cbfffff","h3_res9":"892a1072ca3ffff"},{"osm_id":6238254899,"name":"Wash & Dry Laundromat","amenity_type":"laundry","lat":40.6765227,"lng":-73.9839185,"h3_res7":"872a10774ffffff","h3_res8":"882a10774dfffff","h3_res9":"892a10774d7ffff"},{"osm_id":6244721584,"name":"Angel X's Cleaners","amenity_type":"laundry","lat":40.7762991,"lng":-73.9543051,"h3_res7":"872a10089ffffff","h3_res8":"882a10089bfffff","h3_res9":"892a10089abffff"},{"osm_id":6262516483,"name":"Ocean Laundromat & Dry Cleaning","amenity_type":"laundry","lat":40.6130034,"lng":-73.9965846,"h3_res7":"872a10746ffffff","h3_res8":"882a107461fffff","h3_res9":"892a1074603ffff"},{"osm_id":6299824436,"name":"Ye's Laundromat","amenity_type":"laundry","lat":40.6586417,"lng":-73.9820926,"h3_res7":"872a10774ffffff","h3_res8":"882a107743fffff","h3_res9":"892a1077423ffff"},{"osm_id":6300062994,"name":"Launder Center","amenity_type":"laundry","lat":40.6600467,"lng":-73.9804619,"h3_res7":"872a10774ffffff","h3_res8":"882a107743fffff","h3_res9":"892a1077423ffff"},{"osm_id":6327679052,"name":"Franklin Express Laundry Center","amenity_type":"laundry","lat":40.6721076,"lng":-73.9576005,"h3_res7":"872a100dbffffff","h3_res8":"882a100db1fffff","h3_res9":"892a100db1bffff"},{"osm_id":6332132890,"name":"Unknown","amenity_type":"laundry","lat":40.7203122,"lng":-73.9900905,"h3_res7":"872a1072cffffff","h3_res8":"882a1072cbfffff","h3_res9":"892a1072ca3ffff"},{"osm_id":6332155985,"name":"Cosmo's Launderama","amenity_type":"laundry","lat":40.7272932,"lng":-73.9857579,"h3_res7":"872a100d3ffffff","h3_res8":"882a100d35fffff","h3_res9":"892a100d34bffff"},{"osm_id":6341782739,"name":"Green Earth Organic Ms Bubble","amenity_type":"laundry","lat":40.683907,"lng":-73.989745,"h3_res7":"872a10729ffffff","h3_res8":"882a10729bfffff","h3_res9":"892a10729a3ffff"},{"osm_id":6341782750,"name":"Unknown","amenity_type":"laundry","lat":40.6849254,"lng":-73.9890534,"h3_res7":"872a10729ffffff","h3_res8":"882a10729bfffff","h3_res9":"892a10729a3ffff"},{"osm_id":6341905437,"name":"Super Laundromat","amenity_type":"laundry","lat":40.6868027,"lng":-73.9909929,"h3_res7":"872a10729ffffff","h3_res8":"882a10729bfffff","h3_res9":"892a10729bbffff"},{"osm_id":6402697497,"name":"NY City Express Laundromat","amenity_type":"laundry","lat":40.693765,"lng":-73.9233175,"h3_res7":"872a100ddffffff","h3_res8":"882a100dd5fffff","h3_res9":"892a100dd5bffff"},{"osm_id":6415057482,"name":"Qifa Laundromat","amenity_type":"laundry","lat":40.6200759,"lng":-73.9931579,"h3_res7":"872a10746ffffff","h3_res8":"882a107469fffff","h3_res9":"892a107469bffff"},{"osm_id":6416417667,"name":"Unknown","amenity_type":"laundry","lat":40.6740674,"lng":-73.7999689,"h3_res7":"872a103b6ffffff","h3_res8":"882a103b61fffff","h3_res9":"892a103b617ffff"},{"osm_id":6416421839,"name":"Clean Rite Center","amenity_type":"laundry","lat":40.6738381,"lng":-73.7980065,"h3_res7":"872a103b6ffffff","h3_res8":"882a103b6bfffff","h3_res9":"892a103b6bbffff"},{"osm_id":6416986800,"name":"Capri Laundry Room","amenity_type":"laundry","lat":40.7642394,"lng":-73.9590946,"h3_res7":"872a100d6ffffff","h3_res8":"882a100d45fffff","h3_res9":"892a100d44bffff"},{"osm_id":6432938291,"name":"Bubble Laundry","amenity_type":"laundry","lat":40.6763879,"lng":-73.9989424,"h3_res7":"872a10729ffffff","h3_res8":"882a107293fffff","h3_res9":"892a107292fffff"},{"osm_id":6446722306,"name":"Union Street Laundromat & Cleaners","amenity_type":"laundry","lat":40.684029,"lng":-74.0021128,"h3_res7":"872a10729ffffff","h3_res8":"882a107291fffff","h3_res9":"892a107290fffff"},{"osm_id":6517040646,"name":"Splish Slash Laundromat","amenity_type":"laundry","lat":40.5745768,"lng":-73.9884419,"h3_res7":"872a10743ffffff","h3_res8":"882a10743bfffff","h3_res9":"892a10743bbffff"},{"osm_id":6672878377,"name":"Cleanbrite Laundry","amenity_type":"laundry","lat":40.716485,"lng":-73.7420587,"h3_res7":"872a1005effffff","h3_res8":"882a1005e9fffff","h3_res9":"892a1005e8bffff"},{"osm_id":6678162673,"name":"White Star Laundromat","amenity_type":"laundry","lat":40.5443716,"lng":-74.1612389,"h3_res7":"872a1060cffffff","h3_res8":"882a1060c3fffff","h3_res9":"892a1060c2bffff"},{"osm_id":6680686135,"name":"Unknown","amenity_type":"laundry","lat":40.791845,"lng":-73.946382,"h3_res7":"872a1008dffffff","h3_res8":"882a1008d3fffff","h3_res9":"892a1008d2bffff"},{"osm_id":6734071957,"name":"Unknown","amenity_type":"laundry","lat":40.7279148,"lng":-74.0002595,"h3_res7":"872a1072cffffff","h3_res8":"882a1072cdfffff","h3_res9":"892a1072cc7ffff"},{"osm_id":6744698187,"name":"new wash world","amenity_type":"laundry","lat":40.7638997,"lng":-73.9235827,"h3_res7":"872a100f3ffffff","h3_res8":"882a100f35fffff","h3_res9":"892a100f343ffff"},{"osm_id":6791086281,"name":"May Wah Laundromat","amenity_type":"laundry","lat":40.7210875,"lng":-73.9955656,"h3_res7":"872a1072cffffff","h3_res8":"882a1072cbfffff","h3_res9":"892a1072cabffff"},{"osm_id":6818388767,"name":"Laundromat","amenity_type":"laundry","lat":40.7561021,"lng":-73.9425974,"h3_res7":"872a100d4ffffff","h3_res8":"882a100d43fffff","h3_res9":"892a100d43bffff"},{"osm_id":6833276572,"name":"Classon Laundromat","amenity_type":"laundry","lat":40.6815205,"lng":-73.9582198,"h3_res7":"872a100daffffff","h3_res8":"882a100dabfffff","h3_res9":"892a100daa7ffff"},{"osm_id":6839356356,"name":"Bubble's Super Clean","amenity_type":"laundry","lat":40.8925252,"lng":-73.855502,"h3_res7":"872a10014ffffff","h3_res8":"882a100145fffff","h3_res9":"892a100144fffff"},{"osm_id":6841579383,"name":"Long giang Dang","amenity_type":"laundry","lat":40.7208513,"lng":-73.9947651,"h3_res7":"872a1072cffffff","h3_res8":"882a1072cbfffff","h3_res9":"892a1072cabffff"},{"osm_id":6876080095,"name":"Clinton Hill Laundromat","amenity_type":"laundry","lat":40.6875242,"lng":-73.9665703,"h3_res7":"872a100daffffff","h3_res8":"882a100da1fffff","h3_res9":"892a100da17ffff"},{"osm_id":6876131138,"name":"Joseph Laundromat","amenity_type":"laundry","lat":40.6906284,"lng":-73.958935,"h3_res7":"872a100daffffff","h3_res8":"882a100da9fffff","h3_res9":"892a100da87ffff"},{"osm_id":6896977644,"name":"Unknown","amenity_type":"laundry","lat":40.6636003,"lng":-73.7293392,"h3_res7":"872a103a6ffffff","h3_res8":"882a103a6dfffff","h3_res9":"892a103a6d7ffff"},{"osm_id":6918962446,"name":"Crystal Clean House","amenity_type":"laundry","lat":40.7991366,"lng":-73.9424394,"h3_res7":"872a1008dffffff","h3_res8":"882a1008d1fffff","h3_res9":"892a1008d17ffff"},{"osm_id":6925470658,"name":"5211 Laundromat","amenity_type":"laundry","lat":40.6409364,"lng":-74.0072534,"h3_res7":"872a10770ffffff","h3_res8":"882a107707fffff","h3_res9":"892a107706fffff"},{"osm_id":6943222787,"name":"Nostrand Laundromat Inc","amenity_type":"laundry","lat":40.6728549,"lng":-73.9503833,"h3_res7":"872a100dbffffff","h3_res8":"882a100db9fffff","h3_res9":"892a100db8bffff"},{"osm_id":6946606763,"name":"Miss Bubble Laundromat","amenity_type":"laundry","lat":40.800283,"lng":-73.9660496,"h3_res7":"872a10088ffffff","h3_res8":"882a100889fffff","h3_res9":"892a1008887ffff"},{"osm_id":6985822045,"name":"TEFA","amenity_type":"laundry","lat":40.7247617,"lng":-73.7536552,"h3_res7":"872a10053ffffff","h3_res8":"882a10053bfffff","h3_res9":"892a10053afffff"},{"osm_id":6992725363,"name":"Best Choice Laundromat","amenity_type":"laundry","lat":40.7125486,"lng":-73.7336006,"h3_res7":"872a1005effffff","h3_res8":"882a1005ebfffff","h3_res9":"892a1005eb3ffff"},{"osm_id":6997352129,"name":"Unknown","amenity_type":"laundry","lat":40.7182261,"lng":-73.7575556,"h3_res7":"872a1005effffff","h3_res8":"882a100533fffff","h3_res9":"892a1005327ffff"},{"osm_id":7004691013,"name":"Laundromat","amenity_type":"laundry","lat":40.6608806,"lng":-73.9616063,"h3_res7":"872a100dbffffff","h3_res8":"882a100db7fffff","h3_res9":"892a100db67ffff"},{"osm_id":7020682312,"name":"Calabria Laundromat","amenity_type":"laundry","lat":40.7528678,"lng":-73.859632,"h3_res7":"872a100c4ffffff","h3_res8":"882a100c49fffff","h3_res9":"892a100c49bffff"},{"osm_id":7041663062,"name":"Atmi Junior Laundromay","amenity_type":"laundry","lat":40.7894224,"lng":-73.9478249,"h3_res7":"872a1008dffffff","h3_res8":"882a1008d3fffff","h3_res9":"892a1008d2bffff"},{"osm_id":7041753325,"name":"Sincere Laundry","amenity_type":"laundry","lat":40.7382832,"lng":-73.9841888,"h3_res7":"872a100d2ffffff","h3_res8":"882a100d23fffff","h3_res9":"892a100d207ffff"},{"osm_id":7057069079,"name":"4th Avenue Laundromat","amenity_type":"laundry","lat":40.6597534,"lng":-73.9990783,"h3_res7":"872a10770ffffff","h3_res8":"882a10770dfffff","h3_res9":"892a10770d3ffff"},{"osm_id":7125417492,"name":"Baby Girls Bubbles Cleaners","amenity_type":"laundry","lat":40.8064359,"lng":-73.953656,"h3_res7":"872a1008dffffff","h3_res8":"882a1008c3fffff","h3_res9":"892a1008dcbffff"},{"osm_id":7126269995,"name":"Ridgewood Wash & Fold","amenity_type":"laundry","lat":40.6987481,"lng":-73.9103072,"h3_res7":"872a100ddffffff","h3_res8":"882a100dddfffff","h3_res9":"892a100ddd3ffff"},{"osm_id":7126797741,"name":"Pacific Laundromat","amenity_type":"laundry","lat":40.6400809,"lng":-74.0195459,"h3_res7":"872a10772ffffff","h3_res8":"882a10773dfffff","h3_res9":"892a10773dbffff"},{"osm_id":7129629270,"name":"Brooklyn Sudz","amenity_type":"laundry","lat":40.6880125,"lng":-73.9869816,"h3_res7":"872a10729ffffff","h3_res8":"882a100da5fffff","h3_res9":"892a100da4bffff"},{"osm_id":7154517390,"name":"Sunil Cleaners","amenity_type":"laundry","lat":40.7633367,"lng":-73.875707,"h3_res7":"872a100f1ffffff","h3_res8":"882a100f1bfffff","h3_res9":"892a100f1bbffff"},{"osm_id":7159234144,"name":"N.Y. Wash Laundry","amenity_type":"laundry","lat":40.791292,"lng":-73.9726155,"h3_res7":"872a10088ffffff","h3_res8":"882a100883fffff","h3_res9":"892a1008823ffff"},{"osm_id":7177715088,"name":"Unknown","amenity_type":"laundry","lat":40.7372337,"lng":-73.709476,"h3_res7":"872a10042ffffff","h3_res8":"882a10042dfffff","h3_res9":"892a10042cbffff"},{"osm_id":7194158065,"name":"YingLi Laundry","amenity_type":"laundry","lat":40.5793565,"lng":-73.8371426,"h3_res7":"872a1039effffff","h3_res8":"882a1039ebfffff","h3_res9":"892a1039ebbffff"},{"osm_id":7228492798,"name":"Unknown","amenity_type":"laundry","lat":40.6170947,"lng":-74.0279432,"h3_res7":"872a10755ffffff","h3_res8":"882a10755dfffff","h3_res9":"892a10755c7ffff"},{"osm_id":7363764830,"name":"Suds Buds","amenity_type":"laundry","lat":40.7294837,"lng":-73.9785646,"h3_res7":"872a100d3ffffff","h3_res8":"882a100d3dfffff","h3_res9":"892a100d353ffff"},{"osm_id":7377143724,"name":"Unknown","amenity_type":"laundry","lat":40.7030045,"lng":-73.7810926,"h3_res7":"872a100edffffff","h3_res8":"882a100ed7fffff","h3_res9":"892a100ed67ffff"},{"osm_id":7380434167,"name":"Unknown","amenity_type":"laundry","lat":40.7509327,"lng":-73.8938739,"h3_res7":"872a100c6ffffff","h3_res8":"882a100c69fffff","h3_res9":"892a100c68bffff"},{"osm_id":7380434169,"name":"Laundromat Dry Cleaners","amenity_type":"laundry","lat":40.7584433,"lng":-73.892308,"h3_res7":"872a100f1ffffff","h3_res8":"882a100f17fffff","h3_res9":"892a100f163ffff"},{"osm_id":7386955797,"name":"Woodside Laundry","amenity_type":"laundry","lat":40.7569417,"lng":-73.9065829,"h3_res7":"872a100f3ffffff","h3_res8":"882a100f33fffff","h3_res9":"892a100f3afffff"},{"osm_id":7417993474,"name":"New Westside Cleaners","amenity_type":"laundry","lat":40.7854151,"lng":-73.9779604,"h3_res7":"872a1008bffffff","h3_res8":"882a1008b9fffff","h3_res9":"892a1008b97ffff"},